LOCATION_CODE,LATITUDE,LONGITUDE,CAMERA_TYPE,LOCATION_DETAILS,SCHOOL_ZONE_IND,SPEED_IND,COUNT
6501.0,-29.1483662,153.30632830000002,Fixed Point To Point Site Pair,PACIFIC HIGHWAY NEW ITALY NORTHBOUND,,Y,5
6502.0,-29.4130023,153.2419014,Fixed Point To Point Site Pair,PACIFIC HIGHWAY HARWOOD SOUTHBOUND,,Y,13
6503.0,-33.4251502,149.6506842,Fixed Point To Point Site Pair,GRT WSTN HWY RAGLAN WESTBOUND,,Y,5
6505.0,-34.959948100000005,149.4077462,Fixed Point To Point Site Pair,FEDERAL HIGHWAY COLLECTOR SOUTHBOUND,,Y,47
6507.0,-35.95086510000001,149.14531350000001,Fixed Point To Point Site Pair,MONARO HIGHWAY BREDBO NORTHBOUND,,Y,1
6508.0,-28.95,153.466667,Fixed Point To Point Site Pair,PACIFIC HIGHWAY WARDELL NORTHBOUND,,Y,13
6509.0,-29.095812699999996,153.3396554,Fixed Point To Point Site Pair,PACIFIC HIGHWAY WOODBURN SOUTHBOUND,,Y,14
6510.0,-31.3689451,152.8011527,Fixed Point To Point Site Pair,PACIFIC HIGHWAY TAREE NORTHBOUND,,Y,19
6511.0,-32.1168512,152.3691625,Fixed Point To Point Site Pair,PACIFIC HIGHWAY NABIAC SOUTHBOUND,,Y,47
6512.0,-31.071707,152.845752,Fixed Point To Point Site Pair,MACLEAY VALLEY WAY  KEMPSEY NORTHBOUND,,Y,2
6513.0,-31.3689451,152.8011527,Fixed Point To Point Site Pair,PACIFIC HIGHWAY PORT MACQUARIE SOUTHBOUND,,Y,2
6514.0,-30.9089827,152.917814,Fixed Point To Point Site Pair,PACIFIC HIGHWAY PORT MACQUARIE NORTHBOUND,,Y,58
6515.0,-31.655119,152.7303902,Fixed Point To Point Site Pair,PACIFIC HIGHWAY KEW SOUTHBOUND,,Y,46
6518.0,-35.004096000000004,148.1107374,Fixed Point To Point Site Pair,HUME HIGHWAY GUNDAGAI SOUTHBOUND,,Y,39
6519.0,-34.8975544,148.2054061,Fixed Point To Point Site Pair,HUME HIGHWAY COOLAC NORTHBOUND,,Y,23
6520.0,-34.8975544,148.2054061,Fixed Point To Point Site Pair,HUME HIGHWAY COOLAC SOUTHBOUND,,Y,45
6521.0,-34.8047375,148.9114194,Fixed Point To Point Site Pair,HUME HIGHWAY YASS NORTHBOUND,,Y,20
6522.0,-33.9671027,147.1603969,Fixed Point To Point Site Pair,NEWELL HIGHWAY WEST WYALONG SOUTHBOUND,,Y,9
6523.0,-33.3971888,147.9910276,Fixed Point To Point Site Pair,NEWELL HIGHWAY FORBES NORTHBOUND,,Y,15
6524.0,-31.673838800000002,148.7131866,Fixed Point To Point Site Pair,NEWELL HIGHWAY GILGANDRA NORTHBOUND,,Y,19
6525.0,-31.981883500000002,148.583311,Fixed Point To Point Site Pair,NEWELL HIGHWAY EUMUNGERIE SOUTHBOUND,,Y,22
6526.0,-32.5216439,148.27984530000003,Fixed Point To Point Site Pair,NEWELL HIGHWAY TOMINGLEY NORTHBOUND,,Y,19
6527.0,-32.671618,148.19665039999998,Fixed Point To Point Site Pair,NEWELL HIGHWAY PEAK HILL SOUTHBOUND,,Y,19
6528.0,-32.3168065,150.939234,Fixed Point To Point Site Pair,NEW ENGLAND HIGHWAY MUSWELLBROOK NORTHBOUND,,Y,2
6529.0,-32.5665781,151.1783896,Fixed Point To Point Site Pair,NEW ENGLAND HWAY SINGLETON SOUTHBOUND,,Y,3
6531.0,-32.3168065,150.939234,Fixed Point To Point Site Pair,NEW ENGLAND HIGHWAY MUSWELLBROOK SOUTHBOUND,,Y,1
6532.0,-32.141819,150.2901128,Fixed Point To Point Site Pair,GOLDEN HIGHWAY MERRIWA NORTHBOUND,,Y,1
6533.0,-32.3296058,150.5576112,Fixed Point To Point Site Pair,GOLDEN HIGHWAY SANDY HOLLOW EASTBOUND,,Y,3
6536.0,-32.8558397,148.9120034,Fixed Point To Point Site Pair,MITCHELL HIGHWAY CUNDUMBUL NORTHBOUND,,Y,1
6537.0,-33.1144274,148.93465780000002,Fixed Point To Point Site Pair,MITCHELL HIGHWAY MOLONG SOUTHBOUND,,Y,7
6538.0,-34.4140559,150.8810579,Fixed Point To Point Site Pair,PRINCES MOTORWAY GWYNNEVILLE SOUTHBOUND,,Y,101
6539.0,-34.4014426,150.87903590000002,Fixed Point To Point Site Pair,PRINCES MOTORWAY MOUNT OUSLEY ROAD MOUNT OUSLEY SOUTHBOUND,,Y,42
6541.0,-34.2389023,150.6884551,Fixed Point To Point Site Pair,PICTON ROAD WILTON WESTBOUND,,Y,2
6542.0,-30.5213977,152.98271719999997,Fixed Point To Point Site Pair,PACIFIC HIGHWAY URUNGA NORTHBOUND,,Y,2
6543.0,-30.5877937,152.9994698,Fixed Point To Point Site Pair,GIINAGAY WAY VALLA SOUTHBOUND,,Y,2
6544.0,-29.4130023,153.2419014,Fixed Point To Point Site Pair,PACIFIC HIGHWAY HARWOOD NORTHBOUND,,Y,9
6545.0,-29.5419919,153.1578404,Fixed Point To Point Site Pair,PACIFIC HIGHWAY TYNDALE SOUTHBOUND,,Y,12
6546.0,-31.3689451,152.8011527,Fixed Point To Point Site Pair,PACIFIC HIGHWAY BALLINA NORTHBOUND,,Y,2
6547.0,-28.935507300000005,153.471953,Fixed Point To Point Site Pair,PACIFIC HIGHWAY WARDELL SOUTHBOUND,,Y,26
6548.0,-33.5682239,150.2051199,Fixed Point To Point Site Pair,GRT WSTN HWY LITTLE HARTLEY WESTBOUND,,Y,77
6549.0,-33.5441917,150.1776561,Fixed Point To Point Site Pair,GRT WSTN HWY HARTLEY WESTBOUND,,Y,36
6550.0,-33.5441917,150.1776561,Fixed Point To Point Site Pair,GRT WSTN HWY HARTLEY EASTBOUND,,Y,72
6551.0,-33.5682239,150.2051199,Fixed Point To Point Site Pair,GREAT WESTERN HIGHWAY LITTLE HARTLEY EASTBOUND,,Y,41
6552.0,-31.0829153,152.8750523,Fixed Point To Point Site Pair,PACIFIC HIGHWAY KEMPSEY NORTHBOUND,,Y,24
6553.0,-31.3689451,152.8011527,Fixed Point To Point Site Pair,PACIFIC HIGHWAY PORT MACQUARIE SOUTHBOUND,,Y,26
6554.0,-30.978676699999998,150.7447064,Fixed Point To Point Site Pair,OXLEY HIGHWAY BECTIVE WESTBOUND,,Y,12
6555.0,-30.9848887,150.21698480000003,Fixed Point To Point Site Pair,OXLEY HIGHWAY GUNNEDAH WESTBOUND,,Y,3
6556.0,-30.978676699999998,150.7447064,Fixed Point To Point Site Pair,OXLEY HIGHWAY BECTIVE EASTBOUND,,Y,1
6557.0,-31.0924098,150.934488,Fixed Point To Point Site Pair,OXLEY HIGHWAY TAMWORTH EASTBOUND,,Y,3
7101.0,-33.9008384,151.2038166,Red Light / Speed Camera,MCEVOY STREET WATERLOO WESTBOUND,,Y,57
7102.0,-33.9021792,151.1983597,Red Light / Speed Camera,MCEVOY STREET ALEXANDRIA EASTBOUND,,Y,90
7103.0,-34.0699488,150.8133216,Red Light / Speed Camera,MOORE-OXLEY BYPASS CAMPBELLTOWN WESTBOUND,,Y,201
7104.0,-34.0699488,150.8133216,Red Light / Speed Camera,MOORE-OXLEY BYPASS CAMPBELLTOWN EASTBOUND,,Y,244
7105.0,-33.8905391,151.20949099999999,Red Light / Speed Camera,CLEVELAND STREET SURRY HILLS EASTBOUND,,Y,186
7106.0,-33.90421679999999,151.20524269999999,Red Light / Speed Camera,BOURKE STREET ZETLAND WESTBOUND,,Y,131
7107.0,-33.8087148,151.01568559999998,Red Light / Speed Camera,VICTORIA ROAD PARRAMATTA WESTBOUND,,Y,120
7108.0,-33.898126,150.9202186,Red Light / Speed Camera,CUMBERLAND HIGHWAY CABRAMATTA SOUTHBOUND,,Y,113
7109.0,-33.898126,150.9202186,Red Light / Speed Camera,CUMBERLAND HIGHWAY CABRAMATTA NORTHBOUND,,Y,156
7110.0,-34.0735629,150.8004793,Red Light / Speed Camera,KELLICAR ROAD CAMPBELLTOWN EASTBOUND,,Y,84
7111.0,-34.0722088,150.8011279,Red Light / Speed Camera,KELLICAR ROAD CAMPBELLTOWN WESTBOUND,,Y,112
7112.0,-33.83,151.05100000000002,Red Light / Speed Camera,SILVERWATER ROAD AUBURN NORTHBOUND,,Y,165
7113.0,-33.8339895,151.0482217,Red Light / Speed Camera,SILVERWATER ROAD SILVERWATER SOUTHBOUND,,Y,149
7114.0,-33.93010039999999,151.0692622,Red Light / Speed Camera,CANTERBURY ROAD WILEY PARK EASTBOUND,,Y,181
7115.0,-33.929085,151.0742297,Red Light / Speed Camera,CANTERBURY ROAD ROSELANDS WESTBOUND,,Y,174
7118.0,-33.8193659,150.98720659999998,Red Light / Speed Camera,GREAT WESTERN HIGHWAY WESTMEAD EASTBOUND,,Y,326
7119.0,-33.7094058,150.3730633,Red Light / Speed Camera,GREAT WESTERN HIGHWAY MERRYLANDS WESTBOUND,,Y,287
7120.0,-33.887432000000004,151.217484,Red Light / Speed Camera,SOUTH DOWLING STREET SURRY HILLS NORTHBOUND,,Y,249
7121.0,-33.8854947,151.2181785,Red Light / Speed Camera,SOUTH DOWLING STREET PADDINGTON SOUTHBOUND,,Y,227
7122.0,-33.769690600000004,150.77116830000003,Red Light / Speed Camera,GREAT WESTERN HIGHWAY ST MARYS EASTBOUND,,Y,392
7123.0,-33.7689491,150.7698267,Red Light / Speed Camera,GREAT WESTERN HIGHWAY ST MARYS WESTBOUND,,Y,359
7124.0,-33.8826161,150.9987625,Red Light / Speed Camera,WALDRON ROAD CHESTER HILL  EASTBOUND,,Y,122
7125.0,-33.8838631,151.0076965,Red Light / Speed Camera,WALDRON ROAD SEFTON WESTBOUND,,Y,145
7126.0,-34.0346031,151.10546259999998,Red Light / Speed Camera,KINGSWAY MIRANDA EASTBOUND,,Y,153
7127.0,-33.88602410000001,150.97474609999998,Red Light / Speed Camera,WOODVILLE ROAD VILLAWOOD SOUTHBOUND,,Y,280
7128.0,-33.8979765,150.9735349,Red Light / Speed Camera,HENRY LAWSON DRIVE LANSDOWNE NORTHBOUND,,Y,224
7129.0,-33.868483399999995,151.1027729,Red Light / Speed Camera,PARRAMATTA ROAD CONCORD EASTBOUND,,Y,301
7130.0,-33.8689722,151.10590009999999,Red Light / Speed Camera,PARRAMATTA ROAD BURWOOD WESTBOUND,,Y,334
7131.0,-33.9545883,151.1376661,Red Light / Speed Camera,PRINCES HIGHWAY ROCKDALE SOUTHBOUND,,Y,93
7132.0,-33.950264000000004,151.139268,Red Light / Speed Camera,PRINCES HIGHWAY ROCKDALE NORTHBOUND,,Y,142
7139.0,-33.876569700000005,151.22454309999998,Red Light / Speed Camera,CRAIGEND STREET DARLINGHURST WESTBOUND,,Y,530
7140.0,-33.903180299999995,151.22229860000002,Red Light / Speed Camera,ANZAC PARADE MOORE PARK NORTHBOUND,,Y,220
7141.0,-33.8853066,151.2183574,Red Light / Speed Camera,FLINDERS STREET PADDINGTON SOUTHBOUND,,Y,143
7144.0,-33.8394949,150.9998078,Red Light / Speed Camera,WOODVILLE ROAD GRANVILLE NORTHBOUND,,Y,273
7145.0,-33.74371,150.9827855,Red Light / Speed Camera,WINDSOR ROAD BAULKHAM HILLS WESTBOUND,,Y,206
7146.0,-33.7469565,150.9823503,Red Light / Speed Camera,WINDSOR ROAD BAULKHAM HILLS EASTBOUND,,Y,199
7148.0,-33.925489,150.91812280000002,Red Light / Speed Camera,HUME HIGHWAY LIVERPOOL SOUTHBOUND,,Y,263
7149.0,-33.9282069,150.971545,Red Light / Speed Camera,NEWBRIDGE ROAD MILPERRA EASTBOUND,,Y,181
7150.0,-33.7247612,150.97387980000002,Red Light / Speed Camera,SHOWGROUND ROAD CASTLE HILL WESTBOUND,,Y,293
7151.0,-33.8877665,151.2254056,Red Light / Speed Camera,MOORE PARK ROAD PADDINGTON EASTBOUND,,Y,240
7153.0,-33.8589383,151.04347380000002,Red Light / Speed Camera,OLYMPIC DRIVE LIDCOMBE NORTHBOUND,,Y,185
7154.0,-33.869704799999994,151.06867150000002,Red Light / Speed Camera,ARTHUR STREET STRATHFIELD EASTBOUND,,Y,66
7156.0,-33.88963820000001,151.15241840000002,Red Light / Speed Camera,PARRAMATTA ROAD PETERSHAM WESTBOUND,,Y,303
7158.0,-33.93114620000001,151.1854873,Red Light / Speed Camera,O'RIORDAN STREET MASCOT NORTHBOUND,,Y,58
7159.0,-33.898126,150.9202186,Red Light / Speed Camera,CUMBERLAND HIGHWAY CABRAMATTA SOUTHBOUND,,Y,157
7160.0,-33.776387299999996,150.89913090000002,Red Light / Speed Camera,BUNGARRIBEE ROAD BLACKTOWN EASTBOUND,,Y,135
7161.0,-33.739484600000004,151.07333789999998,Red Light / Speed Camera,PENNANT HILLS ROAD PENNANT HILLS  WESTBOUND,Y,Y,822
7162.0,-34.0434611,151.1259116,Red Light / Speed Camera,THE KINGSWAY CARINGBAH WESTBOUND,,Y,204
7163.0,-33.8638872,151.1702411,Red Light / Speed Camera,VICTORIA ROAD ROZELLE EASTBOUND,,Y,370
7164.0,-33.8154984,150.96956,Red Light / Speed Camera,GREAT WESTERN HIGHWAY WENTWORTHVILLE EASTBOUND,,Y,156
7165.0,-33.739484600000004,151.07333789999998,Red Light / Speed Camera,PENNANT HILLS ROAD WEST PENNANT HILLS  NORTHBOUND,,Y,175
7166.0,-33.8738561,150.95383969999997,Red Light / Speed Camera,HAMILTON ROAD FAIRFIELD WESTBOUND,,Y,216
7167.0,-33.919441799999994,151.0983962,Red Light / Speed Camera,CANTERBURY ROAD CAMPSIE WESTBOUND,,Y,183
7168.0,-33.799968,150.90270969999997,Red Light / Speed Camera,GREAT WESTERN HIGHWAY BLACKTOWN WESTBOUND,,Y,154
7169.0,-33.9335912,151.0733999,Red Light / Speed Camera,KING GEORGES ROAD ROSELANDS NORTHBOUND,,Y,359
7170.0,-33.772780100000006,150.9016754,Red Light / Speed Camera,NEWTON ROAD BLACKTOWN WESTBOUND,Y,Y,340
7171.0,-33.870155,151.14795900000001,Red Light / Speed Camera,DOBROYD PARADE HABERFIELD WESTBOUND,,Y,386
7173.0,-33.85912830000001,150.99385569999998,Red Light / Speed Camera,WOODVILLE ROAD GUILDFORD NORTHBOUND,,Y,151
7174.0,-33.830281899999996,151.203424,Red Light / Speed Camera,PACIFIC HIGHWAY CROWS NEST NORTHBOUND,,Y,161
7175.0,-33.949432,151.1467864,Red Light / Speed Camera,BESTIC STREET ROCKDALE WESTBOUND,,Y,37
7176.0,-33.902882899999994,150.94283180000002,Red Light / Speed Camera,HUME HIGHWAY WARWICK FARM WESTBOUND,,Y,179
7177.0,-33.7240195,151.08704980000002,Red Light / Speed Camera,PENNANT HILLS ROAD THORNLEIGH NORTHBOUND,,Y,227
7178.0,-33.896277000000005,151.220519,Red Light / Speed Camera,ANZAC PARADE MOORE PARK SOUTHBOUND,,Y,116
7179.0,-33.82114489999999,150.962425,Red Light / Speed Camera,CUMBERLAND HIGHWAY SOUTH WENTWORTHVILLE SOUTHBOUND,,Y,128
7180.0,-33.8789342,151.1244362,Red Light / Speed Camera,FREDERICK STREET ASHFIELD SOUTHBOUND,,Y,188
7181.0,-33.9301231,150.9336252,Red Light / Speed Camera,NEWBRIDGE ROAD MOOREBANK WESTBOUND,,Y,277
7182.0,-33.7929012,150.98177859999998,Red Light / Speed Camera,OLD WINDSOR ROAD NORTHMEAD EASTBOUND,,Y,352
7183.0,-33.9525972,151.12246090000002,Red Light / Speed Camera,FOREST ROAD BEXLEY SOUTHBOUND,,Y,86
7184.0,-33.762586,151.1374472,Red Light / Speed Camera,RYDE ROAD WEST PYMBLE SOUTHBOUND,,Y,525
7185.0,-33.8010171,151.12135659999998,Red Light / Speed Camera,WICKS ROAD NORTH RYDE  NORTHBOUND,,Y,42
7186.0,-33.8698807,151.13222580000001,Red Light / Speed Camera,FAIRLIGHT STREET FIVE DOCK EASTBOUND,,Y,14
7188.0,-33.8830919,151.1978139,Red Light / Speed Camera,WATTLE STREET ULTIMO NORTHBOUND,,Y,386
7190.0,-33.9255929,151.1893753,Red Light / Speed Camera,O'RIORDAN STREET MASCOT SOUTHBOUND,,Y,230
7191.0,-33.7681804,150.7103739,Red Light / Speed Camera,PARKER STREET SOUTH PENRITH NORTHBOUND,,Y,185
7192.0,-33.889361799999996,151.2563241,Red Light / Speed Camera,OLD SOUTH HEAD ROAD BONDI JUNCTION WESTBOUND,,Y,112
7193.0,-33.7604626,150.9132878,Red Light / Speed Camera,SUNNYHOLT ROAD  BLACKTOWN SOUTHBOUND,,Y,150
7194.0,-33.75019879999999,151.28932369999998,Red Light / Speed Camera,PITTWATER ROAD DEE WHY SOUTHBOUND,,Y,250
7195.0,-33.9804922,151.124708,Red Light / Speed Camera,PARK ROAD KOGARAH BAY NORTHBOUND,,Y,41
7196.0,-33.7704419,150.8927967,Red Light / Speed Camera,LANCASTER STREET BLACKTOWN SOUTHBOUND,Y,Y,204
7198.0,-34.0310018,151.06705269999998,Red Light / Speed Camera,ACACIA ROAD  KIRRAWEE  SOUTHBOUND,,Y,181
7199.0,-33.917044399999995,151.2414342,Red Light / Speed Camera,AVOCA STREET RANDWICK NORTHBOUND,,Y,117
7200.0,-33.7977086,151.09404819999997,Red Light / Speed Camera,BLAXLAND ROAD EASTWOOD NORTHBOUND,,Y,219
7201.0,-33.851376200000004,150.93591909999998,Red Light / Speed Camera,VICTORIA STREET SMITHFIELD WESTBOUND,,Y,165
7202.0,-33.9079782,151.1595508,Red Light / Speed Camera,SYDENHAM ROAD  MARRICKVILLE  EASTBOUND,,Y,115
7203.0,-33.81658530000001,151.10924359999999,Red Light / Speed Camera,VICTORIA ROAD RYDE WESTBOUND,,Y,214
7204.0,-33.824375,151.132937,Red Light / Speed Camera,RYDE ROAD HUNTERS HILL WESTBOUND,Y,Y,145
7205.0,-33.8258567,151.2330311,Red Light / Speed Camera,MILITARY ROAD MOSMAN WESTBOUND,,Y,308
7206.0,-33.938908000000005,151.114004,Red Light / Speed Camera,BEXLEY ROAD KINGSGROVE NORTHBOUND,,Y,251
7207.0,-33.890722,151.206127,Red Light / Speed Camera,CHALMERS STREET REDFERN NORTHBOUND,Y,Y,343
7208.0,-33.918552399999996,151.226151,Red Light / Speed Camera,ANZAC PARADE KENSINGTON NORTHBOUND,,Y,108
7209.0,-33.884243,150.93774,Red Light / Speed Camera,SACKVILLE STREET CANLEY VALE NORTHBOUND,,Y,132
7210.0,-33.8853299,151.1371247,Red Light / Speed Camera,PARRAMATTA ROAD HABERFIELD EASTBOUND,,Y,407
7211.0,-32.9371319,151.7163306,Red Light / Speed Camera,PARK AVENUE ADAMSTOWN WESTBOUND,,Y,102
7212.0,-32.9275098,151.7572699,Red Light / Speed Camera,PACIFIC HIGHWAY HAMILTON EAST NORTHBOUND,,Y,169
7213.0,-32.9122179,151.720923,Red Light / Speed Camera,GRIFFITHS ROAD LAMBTON EASTBOUND,,Y,319
7214.0,-32.8874123,151.72246930000003,Red Light / Speed Camera,PACIFIC HIGHWAY MAYFIELD WEST WESTBOUND,,Y,259
7215.0,-32.924578100000005,151.7493677,Red Light / Speed Camera,TUDOR STREET HAMILTON WESTBOUND,,Y,201
7216.0,-34.428396899999996,150.8865581,Red Light / Speed Camera,GLADSTONE AVENUE WOLLONGONG NORTHBOUND,,Y,57
7217.0,-34.4562961,150.8438715,Red Light / Speed Camera,PRINCES HIGHWAY UNANDERRA SOUTHBOUND,,Y,195
7218.0,-34.425746999999994,150.89982030000002,Red Light / Speed Camera,CORRIMAL STREET WOLLONGONG NORTHBOUND,,Y,175
7219.0,-34.43680519999999,150.8633439,Red Light / Speed Camera,PRINCES HIGHWAY FIGTREE NORTHBOUND,,Y,183
7220.0,-34.5318435,150.868605,Red Light / Speed Camera,WINDANG ROAD WINDANG NORTHBOUND,,Y,231
7240.0,-33.8791607,151.1375481,Red Light / Speed Camera,RAMSAY STREET HABERFIELD SOUTHBOUND,,Y,39
7241.0,-33.8710114,151.1198776,Red Light / Speed Camera,PARRAMATTA ROAD FIVE DOCK EASTBOUND,,Y,227
7242.0,-33.8298358,151.010148,Red Light / Speed Camera,PARRAMATTA ROAD GRANVILLE EASTBOUND,,Y,297
7243.0,-33.880541,151.20498669999998,Red Light / Speed Camera,GEORGE STREET HAYMARKET SOUTHBOUND,,Y,121
7244.0,-33.880541,151.20498669999998,Red Light / Speed Camera,GEORGE STREET HAYMARKET EASTBOUND,,Y,168
7245.0,-33.923072600000005,151.06785349999998,Red Light / Speed Camera,THE BOULEVARDE WILEY PARK WESTBOUND,Y,Y,242
7246.0,-33.91871810000001,151.1031845,Red Light / Speed Camera,CANTERBURY ROAD CAMPSIE EASTBOUND,,Y,225
7247.0,-33.81720870000001,151.2015284,Red Light / Speed Camera,WILLOUGHBY ROAD NAREMBURN SOUTHBOUND,,Y,137
7248.0,-33.916228499999995,151.03840830000001,Red Light / Speed Camera,STACEY STREET BANKSTOWN NORTHBOUND,,Y,133
7249.0,-33.816592,151.000275,Red Light / Speed Camera,O'CONNELL STREET PARRAMATTA SOUTHBOUND,,Y,179
7250.0,-33.8637456,151.01853569999997,Red Light / Speed Camera,CHISHOLM ROAD AUBURN NORTHBOUND,,Y,105
7251.0,-33.8752093,151.1592542,Red Light / Speed Camera,CITY WEST LINK LEICHHARDT WESTBOUND,,Y,256
7252.0,-33.8631555,151.10501100000002,Red Light / Speed Camera,BROUGHTON STREET CONCORD SOUTHBOUND,,Y,101
7253.0,-33.9233691,150.911899,Red Light / Speed Camera,MEMORIAL AVENUE LIVERPOOL EASTBOUND,,Y,145
7254.0,-33.79456029999999,151.11834309999998,Red Light / Speed Camera,LANE COVE ROAD (SOUTHBOUND) NORTH RYDE SOUTHBOUND,Y,Y,429
7270.0,-33.79456029999999,151.11834309999998,Red Light / Speed Camera,LANE COVE ROAD (NORTHBOUND) NORTH RYDE NORTHBOUND,Y,Y,572
7271.0,-33.91442070000001,151.06775469999997,Red Light / Speed Camera,PUNCHBOWL ROAD LAKEMBA WESTBOUND,,Y,169
7272.0,-33.9351704,151.01043,Red Light / Speed Camera,EDGAR STREET BANKSTOWN SOUTHBOUND,,Y,9
7273.0,-33.767284000000004,150.952495,Red Light / Speed Camera,ABBOTT ROAD SEVEN HILLS WESTBOUND,,Y,139
7274.0,-33.778447,150.81100849999999,Red Light / Speed Camera,GREAT WESTERN HIGHWAY MOUNT DRUITT EASTBOUND,,Y,90
7275.0,-33.8960086,151.1065154,Red Light / Speed Camera,GEORGES RIVER ROAD CROYDON PARK EASTBOUND,,Y,143
7276.0,-34.0725565,150.8101923,Red Light / Speed Camera,MOORE-OXLEY BYPASS BRADBURY SOUTHBOUND,,Y,222
7277.0,-33.90295,151.084403,Red Light / Speed Camera,BURWOOD ROAD BELFIELD NORTHBOUND,,Y,113
7278.0,-33.9492515,151.1024769,Red Light / Speed Camera,KINGSGROVE ROAD KINGSGROVE NORTHBOUND,,Y,190
7279.0,-33.86573500000001,150.9555121,Red Light / Speed Camera,THE HORSLEY DRIVE FAIRFIELD NORTHBOUND,,Y,161
7280.0,-33.8499757,150.94497769999998,Red Light / Speed Camera,CUMBERLAND HIGHWAY SMITHFIELD SOUTHBOUND,,Y,197
7281.0,-33.85315,150.939634,Red Light / Speed Camera,THE HORSLEY DRIVE SMITHFIELD WESTBOUND,,Y,134
7282.0,-33.8154975,151.0045853,Red Light / Speed Camera,MACQUARIE STREET PARRAMATTA WESTBOUND,,Y,25
7283.0,-33.7957943,150.989149,Red Light / Speed Camera,BRIENS ROAD NORTHMEAD WESTBOUND,,Y,177
7284.0,-33.78770120000001,150.7714889,Red Light / Speed Camera,MAMRE ROAD ST MARYS SOUTHBOUND,Y,Y,253
7285.0,-33.912087899999996,151.2378064,Red Light / Speed Camera,ALISON ROAD RANDWICK WESTBOUND,,Y,66
7286.0,-33.981924,151.1367512,Red Light / Speed Camera,ROCKY POINT ROAD RAMSGATE SOUTHBOUND,,Y,130
7287.0,-33.911853,151.19837869999998,Red Light / Speed Camera,COLLINS STREET ALEXANDRIA EASTBOUND,,Y,41
7288.0,-33.8882355,151.23820609999999,Red Light / Speed Camera,QUEEN STREET WOOLLAHRA EASTBOUND,,Y,90
7289.0,-32.9078928,151.66465,Red Light / Speed Camera,THOMAS STREET WALLSEND WESTBOUND,,Y,180
7290.0,-34.4881665,150.887895,Red Light / Speed Camera,KING STREET WARRAWONG SOUTHBOUND,,Y,225
7291.0,-34.4435211,150.88207580000002,Red Light / Speed Camera,SPRINGHILL ROAD (NORTHBOUND) SPRING HILL EASTBOUND,,Y,127
7292.0,-31.2532183,146.921099,Red Light / Speed Camera,SPRINGHILL ROAD (SOUTHBOUND) SPRING HILL SOUTHBOUND,,Y,128
7293.0,-33.8769561,151.10090380000003,Red Light / Speed Camera,RAILWAY PARADE BURWOOD WESTBOUND,,Y,74
7294.0,-33.8990549,151.0373711,Red Light / Speed Camera,ROOKWOOD ROAD YAGOONA SOUTHBOUND,,Y,215
7295.0,-33.886930799999995,151.2082467,Red Light / Speed Camera,ELIZABETH STREET SYDNEY NORTHBOUND,,Y,226
7296.0,-33.874596999999994,151.216813,Red Light / Speed Camera,WILLIAM STREET DARLINGHURST WESTBOUND,,Y,287
7297.0,-33.811225,151.16643080000003,Red Light / Speed Camera,EPPING ROAD LANE COVE WESTBOUND,,Y,145
7298.0,-33.8126402,151.0608014,Red Light / Speed Camera,VICTORIA ROAD ERMINGTON EASTBOUND,,Y,77
7299.0,-33.8366784,150.9897028,Red Light / Speed Camera,MERRYLANDS ROAD MERRYLANDS WEST WESTBOUND,,Y,69
7300.0,-33.85168,151.03810180000002,Red Light / Speed Camera,RAWSON STREET AUBURN WESTBOUND,,Y,111
7301.0,-33.794363700000005,151.0742803,Red Light / Speed Camera,RUTLEDGE STREET EASTWOOD WESTBOUND,Y,Y,288
7302.0,-33.8786986,151.21361819999998,Red Light / Speed Camera,OXFORD STREET DARLINGHURST WESTBOUND,,Y,224
7303.0,-33.7714908,151.0799406,Red Light / Speed Camera,CARLINGFORD ROAD EPPING WESTBOUND,,Y,65
7304.0,-33.95220379999999,151.1313347,Red Light / Speed Camera,HARROW ROAD BEXLEY SOUTHBOUND,,Y,89
7305.0,-33.8303753,151.2141223,Red Light / Speed Camera,FALCON STREET NEUTRAL BAY WESTBOUND,,Y,191
7306.0,-33.5989673,150.75143219999998,Red Light / Speed Camera,MARCH STREET RICHMOND EASTBOUND,,Y,31
7307.0,-33.7105191,151.10342769999997,Red Light / Speed Camera,PACIFIC HIGHWAY WAITARA EASTBOUND,Y,Y,382
7308.0,-33.9405701,151.23828569999998,Red Light / Speed Camera,ANZAC PARADE MAROUBRA SOUTHBOUND,,Y,108
7309.0,-33.73140479999999,151.0035251,Red Light / Speed Camera,PENNANT STREET CASTLE HILL NORTHBOUND,,Y,97
7310.0,-33.7651658,150.9090725,Red Light / Speed Camera,THIRD AVENUE BLACKTOWN EASTBOUND,,Y,176
7311.0,-33.7326581,150.9422722,Red Light / Speed Camera,OLD WINDSOR ROAD GLENWOOD NORTHBOUND,,Y,117
7313.0,-33.9826229,151.10894230000002,Red Light / Speed Camera,KING GEORGES ROAD BLAKEHURST SOUTHBOUND,,Y,108
7314.0,-33.874258700000006,150.9446379,Red Light / Speed Camera,SACKVILLE STREET FAIRFIELD SOUTHBOUND,,Y,17
7315.0,-33.925489,150.91812280000002,Red Light / Speed Camera,HUME HIGHWAY LIVERPOOL SOUTHBOUND,,Y,75
7316.0,-33.886810499999996,151.1987816,Red Light / Speed Camera,ABERCROMBIE STREET CHIPPENDALE NORTHBOUND,,Y,76
7317.0,-33.9152419,151.1751742,Red Light / Speed Camera,PRINCES HIGHWAY ST PETERS NORTHBOUND,,Y,54
7318.0,-33.8818177,151.21958569999998,Red Light / Speed Camera,OXFORD STREET DARLINGHURST EASTBOUND,,Y,197
7319.0,-33.7880939,150.85105430000002,Red Light / Speed Camera,GREAT WESTERN HIGHWAY EASTERN CREEK EASTBOUND,,Y,90
7320.0,-33.9510299,151.092051,Red Light / Speed Camera,STONEY CREEK ROAD KINGSGROVE EASTBOUND,,Y,84
7321.0,-33.8990549,151.0373711,Red Light / Speed Camera,ROOKWOOD ROAD YAGOONA NORTHBOUND,,Y,114
7322.0,-33.9017916,151.06488269999997,Red Light / Speed Camera,ROBERTS ROAD GREENACRE NORTHBOUND,,Y,86
7323.0,-33.9612894,151.2099956,Red Light / Speed Camera,FORESHORE ROAD BANKSMEADOW EASTBOUND,,Y,127
7324.0,-33.882090000000005,150.9240894,Red Light / Speed Camera,CUMBERLAND HIGHWAY CANLEY HEIGHTS NORTHBOUND,Y,Y,167
7325.0,-33.606570899999994,150.8222373,Red Light / Speed Camera,MACQUARIE STREET WINDSOR SOUTHBOUND,,Y,83
7326.0,-33.8549852,151.0722685,Red Light / Speed Camera,HOMEBUSH BAY DRIVE SYDNEY OLYMPIC PARK NORTHBOUND,,Y,97
7327.0,-33.7651658,150.9090725,Red Light / Speed Camera,THIRD AVENUE BLACKTOWN SOUTHBOUND,,Y,66
7328.0,-33.758949,150.8326728,Red Light / Speed Camera,WOODSTOCK AVENUE ROOTY HILL WESTBOUND,,Y,155
7329.0,-33.8845354,151.2113085,Red Light / Speed Camera,FOVEAUX STREET SURRY HILLS WESTBOUND,,Y,44
7330.0,-33.8508561,151.15459130000002,Red Light / Speed Camera,VICTORIA ROAD DRUMMOYNE NORTHBOUND,,Y,64
7331.0,-33.9008384,151.2038166,Red Light / Speed Camera,MCEVOY STREET WATERLOO EASTBOUND,,Y,1
7332.0,-33.8841552,151.2142346,Red Light / Speed Camera,CROWN STREET SURRY HILLS NORTHBOUND,,Y,35
7333.0,-33.8188816,150.9975736,Red Light / Speed Camera,GREAT WESTERN HIGHWAY PARRAMATTA EASTBOUND,,Y,38
7334.0,-33.7991518,150.9004175,Red Light / Speed Camera,GREAT WESTERN HIGHWAY PROSPECT WESTBOUND,,Y,35
7335.0,-33.82818029999999,150.9616772,Red Light / Speed Camera,CUMBERLAND HIGHWAY GREYSTANES SOUTHBOUND,,Y,39
7336.0,-33.846332000000004,151.03022990000002,Red Light / Speed Camera,RAWSON STREET AUBURN EASTBOUND,,Y,72
7337.0,-33.861154,150.9328879,Red Light / Speed Camera,POLDING STREET SMITHFIELD EASTBOUND,,Y,27
7338.0,-33.921884999999996,150.9188845,Red Light / Speed Camera,MOORE STREET LIVERPOOL EASTBOUND,,Y,14
9509.0,-34.333999799999994,150.9130166,Fixed Digital Speed Camera,PRINCES HIGHWAY BULLI NORTHBOUND,,Y,454
9522.0,-33.8878286,151.10451519999998,Fixed Digital Speed Camera,HUME HIGHWAY BURWOOD HEIGHTS WESTBOUND,,Y,247
9530.0,-28.7249643,153.4102392,Fixed Digital Speed Camera,BANGALOW ROAD CLUNES NORTHBOUND,,Y,395
9534.0,-33.839914,151.0325189,Fixed Digital Speed Camera,PARRAMATTA RD AUBURN EASTBOUND,,Y,457
9535.0,-27.5860164,153.1060998,Fixed Digital Speed Camera,M1 PACIFIC MOTORWAY OURIMBAH NORTHBOUND,,Y,282
9538.0,-30.5877937,152.9994698,Fixed Digital Speed Camera,GIINAGAY WAY VALLA SOUTHBOUND,,Y,538
9540.0,-33.817988899999996,151.0221175,Fixed Digital Speed Camera,JAMES RUSE DRIVE CAMELLIA SOUTHBOUND,,Y,293
9541.0,-33.7947808,151.0164205,Fixed Digital Speed Camera,PENNANT HILLS RD NORTH PARRAMATTA EASTBOUND,,Y,265
9542.0,-33.907444700000006,151.02166019999999,Fixed Digital Speed Camera,HUME HIGHWAY YAGOONA EASTBOUND,,Y,255
9543.0,-33.8180954,150.93372040000003,Fixed Digital Speed Camera,GREYSTANES ROAD GREYSTANES NORTHBOUND,,Y,226
9546.0,-33.896907899999995,150.9525689,Fixed Digital Speed Camera,HUME HIGHWAY LANSVALE SOUTHBOUND,,Y,336
9547.0,-33.6176721,150.8070936,Fixed Digital Speed Camera,GEORGE STREET SOUTH WINDSOR SOUTHBOUND,,Y,550
9548.0,-33.701612299999994,150.5809586,Fixed Digital Speed Camera,GREAT WESTERN HIGHWAY VALLEY HEIGHTS EASTBOUND,,Y,201
9549.0,-33.8787277,151.2359644,Fixed Digital Speed Camera,NEW SOUTH HEAD ROAD EDGECLIFF EASTBOUND,,Y,345
9550.0,-33.8124059,151.1592767,Fixed Digital Speed Camera,CENTENNIAL AVENUE LANE COVE SOUTHBOUND,,Y,372
9551.0,-33.9365967,151.1253356,Fixed Digital Speed Camera,M5 MOTORWAY (EASTBOUND)  BARDWELL PARK EASTBOUND,,Y,704
9552.0,-33.935677399999996,151.14667169999998,Fixed Digital Speed Camera,M5 MOTORWAY (WESTBOUND)  ARNCLIFFE WESTBOUND,,Y,698
9553.0,-33.77646610000001,151.0523698,Fixed Digital Speed Camera,PENNANT HILLS ROAD CARLINGFORD WESTBOUND,,Y,263
9554.0,-33.8037639,151.1027984,Fixed Digital Speed Camera,BLAXLAND ROAD RYDE EASTBOUND,,Y,280
9556.0,-34.369372999999996,150.90234840000002,Fixed Digital Speed Camera,MEMORIAL DRIVE CORRIMAL NORTHBOUND,,Y,251
9557.0,-34.369372999999996,150.90234840000002,Fixed Digital Speed Camera,MEMORIAL DRIVE CORRIMAL SOUTHBOUND,,Y,291
9560.0,-33.742286,151.045084,Fixed Digital Speed Camera,CASTLE HILL ROAD WEST PENNANT HILLS WESTBOUND,,Y,379
9561.0,-33.870332,150.980552,Fixed Digital Speed Camera,FAIRFIELD STREET FAIRFIELD EAST WESTBOUND,,Y,253
9563.0,-29.926309000000003,151.72353,Fixed Digital Speed Camera,NEW ENGLAND HIGHWAY BEN LOMOND NORTHBOUND,,Y,199
9567.0,-30.5877937,152.9994698,Fixed Digital Speed Camera,GIINAGAY WAY VALLA SOUTHBOUND,,Y,206
9568.0,-29.09610859999999,152.0020534,Fixed Digital Speed Camera,NEW ENGLAND HIGHWAY TENTERFIELD EASTBOUND,,Y,659
9570.0,-28.935507300000005,153.471953,Fixed Digital Speed Camera,PACIFIC HIGHWAY WARDELL SOUTHBOUND,,Y,461
9571.0,-28.8252315,153.41336719999998,Fixed Digital Speed Camera,BRUXNER HWY WOLLONGBAR EASTBOUND,,Y,380
9573.0,-33.961059000000006,151.05014630000002,Fixed Digital Speed Camera,HENRY LAWSON DRIVE PEAKHURST WESTBOUND,Y,Y,346
9574.0,-30.2489804,153.1370101,Fixed Digital Speed Camera,PACIFIC HIGHWAY KORORA NORTHBOUND,,Y,460
9577.0,-31.062934100000003,151.0409314,Fixed Digital Speed Camera,NEW ENGLAND HIGHWAY KOOTINGAL NORTHBOUND,,Y,39
9578.0,-30.6790239,152.9455597,Fixed Digital Speed Camera,PACIFIC HIGHWAY NORTH MACKSVILLE SOUTHBOUND,,Y,104
9579.0,-31.7904175,150.8995795,Fixed Digital Speed Camera,NEW ENGLAND HIGHWAY BLANDFORD SOUTHBOUND,,Y,728
9580.0,-32.867779999999996,151.7082373,Fixed Digital Speed Camera,PACIFIC HIGHWAY SANDGATE NORTHBOUND,,Y,282
9581.0,-32.867779999999996,151.7082373,Fixed Digital Speed Camera,PACIFIC HIGHWAY SANDGATE SOUTHBOUND,,Y,215
9582.0,-32.8874123,151.72246930000003,Fixed Digital Speed Camera,PACIFIC HIGHWAY MAYFIELD WEST EASTBOUND,,Y,257
9583.0,-33.145684499999994,151.61238840000001,Fixed Digital Speed Camera,PACIFIC HIGHWAY NORDS WHARF NORTHBOUND,,Y,239
9586.0,-32.9254564,151.6829738,Fixed Digital Speed Camera,MCCAFFREY DRIVE  RANKIN PARK WESTBOUND,,Y,323
9587.0,-33.439848600000005,151.4239188,Fixed Digital Speed Camera,TERRIGAL DRIVE  TERRIGAL EASTBOUND,,Y,5
9590.0,-34.80817529999999,150.6371231,Fixed Digital Speed Camera,PRINCES HIGHWAY BERRY NORTHBOUND,,Y,439
9592.0,-34.48975739999999,150.8832195,Fixed Digital Speed Camera,NORTHCLIFFE DRIVE WARRAWONG EASTBOUND,,Y,235
9593.0,-34.7418606,150.7504879,Fixed Digital Speed Camera,PRINCES HIGHWAY BROUGHTON VILLAGE NORTHBOUND,,Y,51
9594.0,-34.855668200000004,150.6119622,Fixed Digital Speed Camera,BOLONG ROAD BOMADERRY EASTBOUND,,Y,135
9596.0,-35.372756700000004,149.1957791,Fixed Digital Speed Camera,LANYON DRIVE QUEANBEYAN NORTHBOUND,,Y,263
9597.0,-34.3101528,150.8989647,Fixed Digital Speed Camera,M1 PRINCES MOTORWAY GWYNNEVILLE NORTHBOUND,,Y,592
9600.0,-33.966393200000006,151.1367121,Fixed Digital Speed Camera,PRINCES HIGHWAY KOGARAH (Z) NORTHBOUND,Y,Y,574
9601.0,-33.966393200000006,151.1367121,Fixed Digital Speed Camera,PRINCES HIGHWAY KOGARAH (Z) SOUTHBOUND,Y,Y,811
9602.0,-33.8230285,151.23183590000002,Fixed Digital Speed Camera,MACPHERSON STREET MOSMAN (Z) SOUTHBOUND,Y,Y,884
9603.0,-34.037546500000005,151.0835981,Fixed Digital Speed Camera,PRESIDENT AVENUE GYMEA (Z) WESTBOUND,Y,Y,137
9604.0,-33.7714908,151.0799406,Fixed Digital Speed Camera,CARLINGFORD ROAD EPPING (Z) WESTBOUND,Y,Y,313
9606.0,-33.4191247,151.3483296,Fixed Digital Speed Camera,HENRY PARRY DRIVE NORTH GOSFORD NORTHBOUND,Y,Y,583
9610.0,-34.4276498,150.8692199,Fixed Digital Speed Camera,PRINCES HIGHWAY WEST WOLLONGONG (Z) NORTHBOUND,Y,Y,738
9612.0,-36.501366100000006,149.84071569999998,Fixed Digital Speed Camera,PRINCES HIGHWAY BROGO NORTHBOUND,,Y,127
9613.0,-33.8740035,151.2176244,Fixed Digital Speed Camera,CROSS CITY TUNNEL WOOLLOOMOOLOO EASTBOUND,,Y,542
9614.0,-33.8739352,151.2145413,Fixed Digital Speed Camera,CROSS CITY TUNNEL EAST SYDNEY WESTBOUND,,Y,701
9615.0,-33.8041708,151.2458041,Fixed Digital Speed Camera,SPIT ROAD MOSMAN SOUTHBOUND,,Y,165
9616.0,-27.5860164,153.1060998,Fixed Digital Speed Camera,M1 PACIFIC MOTORWAY BAR POINT NORTHBOUND,,Y,246
9617.0,-33.9402497,151.1154885,Fixed Digital Speed Camera,BEXLEY ROAD BEXLEY NORTH EASTBOUND,,Y,459
9618.0,-30.38610929999999,153.0329709,Fixed Digital Speed Camera,PINE CREEK WAY BONVILLE SOUTHBOUND,,Y,291
9620.0,-29.1483662,153.30632830000002,Fixed Digital Speed Camera,PACIFIC HIGHWAY NEW ITALY SOUTHBOUND,,Y,180
9622.0,-33.2284616,151.5030413,Fixed Digital Speed Camera,PACIFIC HIGHWAY CHARMHAVEN SOUTHBOUND,,Y,480
9623.0,-28.6543917,153.5376605,Fixed Digital Speed Camera,HINTERLAND WAY EWINGSDALE SOUTHBOUND,,Y,1570
9625.0,-33.841578999999996,151.08893899999998,Fixed Digital Speed Camera,CONCORD ROAD CONCORD WEST NORTHBOUND,,Y,754
9626.0,-34.0358093,151.13134680000002,Fixed Digital Speed Camera,CAPTAIN COOK DRIVE CARINGBAH EASTBOUND,,Y,177
9631.0,-33.5441917,150.1776561,Fixed Digital Speed Camera,GREAT WESTERN HIGHWAY HARTLEY EASTBOUND,,Y,346
9632.0,-30.520321999999997,153.001023,Fixed Digital Speed Camera,GIINAGAY WAY URUNGA NORTHBOUND,,Y,187
9635.0,-33.8793735,151.21703069999998,Fixed Digital Speed Camera,EASTERN DISTRIBUTOR DARLINGHURST NORTHBOUND,,Y,753
9636.0,-32.6992238,151.45610259999998,Fixed Digital Speed Camera,NEW ENGLAND HIGHWAY LOCHINVAR (Z) EASTBOUND,Y,Y,1248
9637.0,-32.9824156,151.6921959,Fixed Digital Speed Camera,PACIFIC HIGHWAY GATESHEAD (Z) SOUTHBOUND,Y,Y,744
9638.0,-33.5499255,150.6808346,Fixed Digital Speed Camera,BELLS LINE OF ROAD KURRAJONG HEIGHTS WESTBOUND,,Y,713
9639.0,-34.405840399999995,150.8907575,Fixed Digital Speed Camera,PRINCES HIGHWAY NORTH WOLLONGONG SOUTHBOUND,,Y,321
9640.0,-33.7463,151.1696408,Fixed Digital Speed Camera,EASTERN ARTERIAL ROAD GORDON SOUTHBOUND,,Y,61
9641.0,-33.8793735,151.21703069999998,Fixed Digital Speed Camera,EASTERN DISTRIBUTOR DARLINGHURST SOUTHBOUND,,Y,439
9642.0,-33.7927414,151.20739790000002,Fixed Digital Speed Camera,EASTERN VALLEY WAY  NORTH WILLOUGHBY NORTHBOUND,,Y,133
9643.0,-33.6608956,150.7970218,Fixed Digital Speed Camera,RICHMOND ROAD BERKSHIRE PARK EASTBOUND,,Y,280
9644.0,-33.971939,150.99743,Fixed Digital Speed Camera,HENRY LAWSON DRIVE PICNIC POINT WESTBOUND,,Y,685
9645.0,-33.9026631,150.8956991,Fixed Digital Speed Camera,ELIZABETH DRIVE MOUNT PRITCHARD WESTBOUND,,Y,762
9646.0,-33.941109499999996,151.0278006,Fixed Digital Speed Camera,GIBSON AVENUE PADSTOW NORTHBOUND,,Y,369
9648.0,-29.095812699999996,153.3396554,Fixed Digital Speed Camera,PACIFIC HIGHWAY WOODBURN SOUTHBOUND,,Y,1273
9650.0,-33.81270840000001,151.24260280000001,Fixed Digital Speed Camera,SPIT ROAD BEAUTY POINT NORTHBOUND,,Y,107
9651.0,-33.9126,151.118,Fixed Digital Speed Camera,CANTERBURY ROAD CANTERBURY NORTHBOUND,,Y,301
9652.0,-28.426656400000002,153.4637868,Fixed Digital Speed Camera,TWEED VALLEY WAY BURRINGBAR NORTHBOUND,,Y,148
9655.0,-33.812130100000005,151.1713631,Fixed Digital Speed Camera,LANE COVE TUNNEL LANE COVE EASTBOUND,,Y,716
9656.0,-33.8148708,151.1664351,Fixed Digital Speed Camera,LANE COVE TUNNEL LANE COVE WEST WESTBOUND,,Y,771
9657.0,-33.7861411,151.02539140000002,Fixed Digital Speed Camera,PENNANT HILLS ROAD NTH PARRAMATTA (Z) NORTHBOUND,Y,Y,600
9658.0,-33.789353000000006,151.02384990000002,Fixed Digital Speed Camera,PENNANT HILLS ROAD OATLANDS (Z) SOUTHBOUND,Y,Y,416
9660.0,-33.336762199999995,151.3770685,Fixed Digital Speed Camera,PACIFIC HIGHWAY OURIMBAH (Z) NORTHBOUND,Y,Y,612
9661.0,-33.336762199999995,151.3770685,Fixed Digital Speed Camera,PACIFIC HIGHWAY OURIMBAH (Z) SOUTHBOUND,Y,Y,502
9662.0,-34.3101528,150.8989647,Fixed Digital Speed Camera,M1 PRINCES MOTORWAY GWYNNEVILLE SOUTHBOUND,,Y,301
9665.0,-30.6790239,152.9455597,Fixed Digital Speed Camera,PACIFIC HIGHWAY NORTH MACKSVILLE EASTBOUND,,Y,287
9666.0,-33.5834465,150.2419101,Fixed Digital Speed Camera,GREAT WESTERN HIGHWAY MOUNT VICTORIA WESTBOUND,,Y,376
9667.0,-33.7548795,151.27124980000002,Fixed Digital Speed Camera,WARRINGAH ROAD NARRAWEENA EASTBOUND,,Y,445
9669.0,-34.0727723,151.00201130000002,Fixed Digital Speed Camera,HEATHCOTE ROAD ENGADINE WESTBOUND,,Y,64
9800.0,-33.852306299999995,151.2107871,Fixed Digital Speed Camera,SYDNEY HARBOUR TUNNEL (NORTH) SYDNEY NORTHBOUND,,Y,428
9801.0,-33.852306299999995,151.2107871,Fixed Digital Speed Camera,SYDNEY HARBOUR TUNNEL (SOUTH) SYDNEY SOUTHBOUND,,Y,453
9802.0,-33.7857456,150.961101,Fixed Digital Speed Camera,FITZWILLIAM ROAD TOONGABBIE (Z) EASTBOUND,Y,Y,349
9803.0,-33.7862646,150.96708869999998,Fixed Digital Speed Camera,FITZWILLIAM ROAD OLD TOONGABBIE (Z) WESTBOUND,Y,Y,328
9804.0,-33.731181899999996,151.008792,Fixed Digital Speed Camera,OLD NORTHERN ROAD CASTLE HILL (Z) WESTBOUND,Y,Y,814
9806.0,-33.85912830000001,150.99385569999998,Fixed Digital Speed Camera,WOODVILLE ROAD GUILDFORD (Z) NORTHBOUND,Y,Y,497
9807.0,-33.85912830000001,150.99385569999998,Fixed Digital Speed Camera,WOODVILLE ROAD GUILDFORD (Z) SOUTHBOUND,Y,Y,508
9810.0,-33.8366784,150.9897028,Fixed Digital Speed Camera,MERRYLANDS ROAD MERRYLANDS (Z) EASTBOUND,Y,Y,818
9811.0,-33.9448563,151.22433059999997,Fixed Digital Speed Camera,BUNNERONG ROAD EASTGARDENS(Z) NORTHBOUND,Y,Y,588
9812.0,-33.946456700000006,151.22792990000002,Fixed Digital Speed Camera,BUNNERONG ROAD MAROUBRA (Z) SOUTHBOUND,Y,Y,582
9813.0,-33.944469299999994,151.2516454,Fixed Digital Speed Camera,MALABAR ROAD MAROUBRA (B)(Z) NORTHBOUND,Y,Y,280
9814.0,-33.944469299999994,151.2516454,Fixed Digital Speed Camera,MALABAR ROAD MAROUBRA (B)(Z) SOUTHBOUND,Y,Y,182
9815.0,-33.917044399999995,151.2414342,Fixed Digital Speed Camera,AVOCA STREET RANDWICK (Z) SOUTHBOUND,Y,Y,1112
9816.0,-33.9089347,151.2027602,Fixed Digital Speed Camera,BOTANY ROAD ALEXANDRIA (Z) NORTHBOUND,Y,Y,382
9817.0,-33.9185566,151.199429,Fixed Digital Speed Camera,BOTANY ROAD ROSEBERY (Z) SOUTHBOUND,Y,Y,988
9818.0,-33.907706899999994,151.02639240000002,Fixed Digital Speed Camera,HUME HIGHWAY BANKSTOWN (Z) EASTBOUND,Y,Y,625
9819.0,-33.907706899999994,151.02639240000002,Fixed Digital Speed Camera,HUME HIGHWAY BANKSTOWN (Z) WESTBOUND,Y,Y,690
9820.0,-33.8897338,151.1266322,Fixed Digital Speed Camera,HUME HIGHWAY ASHFIELD (Z) WESTBOUND,Y,Y,768
9821.0,-33.920351600000004,150.92735380000002,Fixed Digital Speed Camera,BIGGE STREET LIVERPOOL (Z) NORTHBOUND,Y,Y,987
9822.0,-33.9489473,151.0805338,Fixed Digital Speed Camera,KING GEORGES ROAD BEVERLY HILLS (Z) NORTHBOUND,Y,Y,589
9823.0,-33.9489473,151.0805338,Fixed Digital Speed Camera,KING GEORGES ROAD BEVERLY HILLS (Z) SOUTHBOUND,Y,Y,825
9824.0,-33.7803001,151.1693998,Fixed Digital Speed Camera,PACIFIC HIGHWAY LINDFIELD (Z) EASTBOUND,Y,Y,516
9825.0,-33.7803001,151.1693998,Fixed Digital Speed Camera,PACIFIC HIGHWAY LINDFIELD (Z) WESTBOUND,Y,Y,431
9826.0,-33.718396000000006,151.298269,Fixed Digital Speed Camera,PITTWATER ROAD NARRABEEN (Z) NORTHBOUND,Y,Y,547
9827.0,-33.718396000000006,151.298269,Fixed Digital Speed Camera,PITTWATER ROAD NARRABEEN (Z) SOUTHBOUND,Y,Y,419
9828.0,-33.92600170000001,151.01245880000002,Fixed Digital Speed Camera,EDGAR STREET CONDELL PARK (Z) NORTHBOUND,Y,Y,10
9829.0,-33.9632472,151.0852054,Fixed Digital Speed Camera,FOREST ROAD  PENSHURST (Z) WESTBOUND,Y,Y,715
9830.0,-33.965055799999995,151.1001414,Fixed Digital Speed Camera,FOREST ROAD  HURSTVILLE (Z) NORTHBOUND,Y,Y,929
9831.0,-33.763512799999994,151.27985669999998,Fixed Digital Speed Camera,HARBORD ROAD  NORTH CURL CURL (Z) SOUTHBOUND,Y,Y,627
9832.0,-33.894289,150.891065,Fixed Digital Speed Camera,CABRAMATTA ROAD BONNYRIGG (Z) WESTBOUND,Y,Y,1169
9833.0,-34.0346031,151.10546259999998,Fixed Digital Speed Camera,KINGSWAY MIRANDA (Z) EASTBOUND,Y,Y,469
9834.0,-34.0346031,151.10546259999998,Fixed Digital Speed Camera,KINGSWAY MIRANDA (Z) WESTBOUND,Y,Y,528
9835.0,-33.81658530000001,151.10924359999999,Fixed Digital Speed Camera,VICTORIA ROAD RYDE (Z) EASTBOUND,Y,Y,758
9836.0,-33.81658530000001,151.10924359999999,Fixed Digital Speed Camera,VICTORIA ROAD RYDE (Z) WESTBOUND,Y,Y,484
9837.0,-33.896277000000005,151.220519,Fixed Digital Speed Camera,CLEVELAND STREET MOORE PARK (Z) EASTBOUND,Y,Y,781
9838.0,-33.896277000000005,151.220519,Fixed Digital Speed Camera,CLEVELAND STREET MOORE PARK (Z) WESTBOUND,Y,Y,734
9839.0,-33.812051000000004,151.0396225,Fixed Digital Speed Camera,VICTORIA ROAD RYDALMERE (Z) EASTBOUND,Y,Y,619
9840.0,-33.812051000000004,151.0396225,Fixed Digital Speed Camera,VICTORIA ROAD RYDALMERE (Z) WESTBOUND,Y,Y,506
9841.0,-33.8671273,150.988116,Fixed Digital Speed Camera,WOODVILLE ROAD OLD GUILDFORD (Z) NORTHBOUND,Y,Y,567
9842.0,-33.8704044,150.9856395,Fixed Digital Speed Camera,WOODVILLE ROAD CHESTER HILL (Z) SOUTHBOUND,Y,Y,850
9843.0,-33.7242039,151.1189764,Fixed Digital Speed Camera,PACIFIC HIGHWAY WAHROONGA (Z) NORTHBOUND,Y,Y,859
9844.0,-33.7242039,151.1189764,Fixed Digital Speed Camera,PACIFIC HIGHWAY WAHROONGA (Z) SOUTHBOUND,Y,Y,730
9845.0,-33.7606459,150.7109626,Fixed Digital Speed Camera,PARKER STREET KINGSWOOD (Z) NORTHBOUND,Y,Y,613
9846.0,-33.7606459,150.7109626,Fixed Digital Speed Camera,PARKER STREET KINGSWOOD (Z) SOUTHBOUND,Y,Y,339
9847.0,-33.6989771,151.300621,Fixed Digital Speed Camera,PITTWATER ROAD NORTH NARRABEEN (Z) NORTHBOUND,Y,Y,518
9848.0,-33.70814310000001,151.2960824,Fixed Digital Speed Camera,PITTWATER ROAD NORTH NARRABEEN (Z) SOUTHBOUND,Y,Y,614
9849.0,-33.8801227,151.09281409999997,Fixed Digital Speed Camera,THE BOULEVARDE STRATHFIELD (Z) NORTHBOUND,Y,Y,1217
9850.0,-33.440534,151.435945,Fixed Digital Speed Camera,TERRIGAL DRIVE TERRIGAL WESTBOUND,Y,Y,308
9851.0,-33.92600170000001,151.01245880000002,Fixed Digital Speed Camera,EDGAR STREET CONDELL PARK (Z) NORTHBOUND,Y,Y,807
10000.0,-32.0582583,150.87025830000002,Mobile Digital Speed Camera,NEW ENGLAND HIGHWAY SCONE  SOUTHBOUND,,Y,2
10008.0,-32.6601529,151.0267919,Mobile Digital Speed Camera,PUTTY ROAD BULGA EASTBOUND,,Y,1
10009.0,-32.5863328,151.1532253,Mobile Digital Speed Camera,PUTTY ROAD GLENRIDDING SOUTHBOUND,,Y,1
10010.0,-33.07298,151.6509828,Mobile Digital Speed Camera,PACIFIC HIGHWAY BLACKSMITHS SOUTHBOUND,,Y,96
10011.0,-33.07298,151.6509828,Mobile Digital Speed Camera,PACIFIC HIGHWAY BLACKSMITHS SOUTHBOUND,,Y,27
10012.0,-33.07298,151.6509828,Mobile Digital Speed Camera,PACIFIC HIGHWAY BLACKSMITHS NORTHBOUND,,Y,57
10013.0,-32.5863328,151.1532253,Mobile Digital Speed Camera,PUTTY ROAD GLENRIDDING NORTHBOUND,,Y,3
10019.0,-32.6175118,151.1093849,Mobile Digital Speed Camera,PUTTY ROAD MOUNT THORLEY WESTBOUND,,Y,1
10021.0,-32.5568861,151.1687091,Mobile Digital Speed Camera,NEW ENGLAND HIGHWAY DUNOLLY EASTBOUND,,Y,108
10022.0,-32.545362,151.1495898,Mobile Digital Speed Camera,NEW ENGLAND HIGHWAY MCDOUGALLS HILL WESTBOUND,,Y,103
10036.0,-32.6605345,151.35159850000002,Mobile Digital Speed Camera,BRIDGE STREET BRANXTON SOUTHBOUND,,Y,2
10038.0,-32.8706836,151.43004309999998,Mobile Digital Speed Camera,LAKE ROAD ELRINGTON EASTBOUND,,Y,1
10042.0,-32.7142017,151.32788190000002,Mobile Digital Speed Camera,WINE COUNTRY DRIVE ROTHBURY SOUTHBOUND,,Y,1
10043.0,-32.7142017,151.32788190000002,Mobile Digital Speed Camera,WINE COUNTRY DRIVE ROTHBURY SOUTHBOUND,,Y,5
10044.0,-32.7142017,151.32788190000002,Mobile Digital Speed Camera,WINE COUNTRY DRIVE ROTHBURY SOUTHBOUND,,Y,3
10047.0,-32.70917430000001,151.51767080000002,Mobile Digital Speed Camera,DENTON PARK DRIVE RUTHERFORD NORTHBOUND,,Y,1
10050.0,-32.109529200000004,152.4780207,Mobile Digital Speed Camera,THE LAKES WAY DARAWANK SOUTHBOUND,,Y,22
10051.0,-32.109529200000004,152.4780207,Mobile Digital Speed Camera,THE LAKES WAY DARAWANK NORTHBOUND,,Y,2
10052.0,-32.109529200000004,152.4780207,Mobile Digital Speed Camera,THE LAKES WAY DARAWANK SOUTHBOUND,,Y,1
10055.0,-32.109529200000004,152.4780207,Mobile Digital Speed Camera,THE LAKES WAY DARAWANK NORTHBOUND,,Y,1
10060.0,-32.784695299999996,151.7334245,Mobile Digital Speed Camera,PACIFIC HIGHWAY HEATHERBRAE SOUTHBOUND,,Y,32
10071.0,-34.8799505,149.5352035,Mobile Digital Speed Camera,FEDERAL HIGHWAY WOLLOGORANG NORTHBOUND,,Y,1
10073.0,-34.959948100000005,149.4077462,Mobile Digital Speed Camera,FEDERAL HIGHWAY COLLECTOR SOUTHBOUND,,Y,2
10075.0,-34.959948100000005,149.4077462,Mobile Digital Speed Camera,FEDERAL HIGHWAY COLLECTOR  NORTHBOUND,,Y,7
10077.0,-35.0618689,149.37356090000003,Mobile Digital Speed Camera,FEDERAL HIGHWAY LAKE GEORGE SOUTHBOUND,,Y,16
10080.0,-32.170872700000004,150.8908584,Mobile Digital Speed Camera,NEW ENGLAND HIGHWAY ABERDEEN SOUTHBOUND,,Y,2
10081.0,-32.3168065,150.939234,Mobile Digital Speed Camera,NEW ENGLAND HIGHWAY MUSWELLBROOK NORTHBOUND,,Y,7
10085.0,-34.959948100000005,149.4077462,Mobile Digital Speed Camera,FEDERAL HIGHWAY COLLECTOR  NORTHBOUND,,Y,3
10086.0,-34.959948100000005,149.4077462,Mobile Digital Speed Camera,FEDERAL HIGHWAY COLLECTOR EASTBOUND,,Y,17
10088.0,-34.959948100000005,149.4077462,Mobile Digital Speed Camera,FEDERAL HIGHWAY COLLECTOR  WESTBOUND,,Y,2
10089.0,-34.8799505,149.5352035,Mobile Digital Speed Camera,FEDERAL HIGHWAY WOLLOGORANG EASTBOUND,,Y,2
10090.0,-32.6259184,152.05543630000003,Mobile Digital Speed Camera,PACIFIC HIGHWAY NORTH ARM COVE SOUTHBOUND,,Y,33
10091.0,-32.596174100000006,152.1174444,Mobile Digital Speed Camera,PACIFIC HIGHWAY TEA GARDENS NORTHBOUND,,Y,22
10092.0,-32.596174100000006,152.1174444,Mobile Digital Speed Camera,PACIFIC HIGHWAY TEA GARDENS SOUTHBOUND,,Y,91
10110.0,-32.9990506,151.5371045,Mobile Digital Speed Camera,CESSNOCK ROAD AWABA EASTBOUND,,Y,34
10112.0,-34.2946464,148.3496827,Mobile Digital Speed Camera,OLYMPIC HIGHWAY YOUNG SOUTHBOUND,,Y,1
10117.0,-34.514031200000005,148.16259250000002,Mobile Digital Speed Camera,OLYMPIC HIGHWAY WALLENDBEEN NORTHBOUND,,Y,2
10120.0,-32.6171166,151.2171226,Mobile Digital Speed Camera,NEW ENGLAND HIGHWAY WHITTINGHAM  WESTBOUND,,Y,64
10122.0,-34.2946464,148.3496827,Mobile Digital Speed Camera,OLYMPIC HIGHWAY YOUNG NORTHBOUND,,Y,1
10123.0,-34.2946464,148.3496827,Mobile Digital Speed Camera,OLYMPIC HIGHWAY YOUNG NORTHBOUND,,Y,1
10130.0,-32.9991405,151.6857887,Mobile Digital Speed Camera,PACIFIC HIGHWAY BENNETTS GREEN SOUTHBOUND,,Y,92
10131.0,-32.9991405,151.6857887,Mobile Digital Speed Camera,PACIFIC HIGHWAY BENNETTS GREEN NORTHBOUND,,Y,56
10138.0,-31.863899199999995,148.6410193,Mobile Digital Speed Camera,NEWELL HIGHWAY BALLADORAN NORTHBOUND,,Y,2
10140.0,-31.863899199999995,148.6410193,Mobile Digital Speed Camera,NEWELL HIGHWAY BALLADORAN SOUTHBOUND,,Y,2
10146.0,-31.981883500000002,148.583311,Mobile Digital Speed Camera,NEWELL HIGHWAY EUMUNGERIE NORTHBOUND,,Y,1
10147.0,-31.5536107,148.81457450000002,Mobile Digital Speed Camera,NEWELL HIGHWAY BIDDON NORTHBOUND,,Y,1
10150.0,-31.2489375,149.3064104,Mobile Digital Speed Camera,NEWELL HIGHWAY COONABARABRAN SOUTHBOUND,,Y,7
10158.0,-31.4302152,149.0702718,Mobile Digital Speed Camera,NEWELL HIGHWAY GOWANG SOUTHBOUND,,Y,2
10159.0,-31.4302152,149.0702718,Mobile Digital Speed Camera,NEWELL HIGHWAY GOWANG NORTHBOUND,,Y,1
10160.0,-32.985812,151.51328700000002,Mobile Digital Speed Camera,PALMERS ROAD FREEMANS WATERHOLE WESTBOUND,,Y,10
10162.0,-31.2489375,149.3064104,Mobile Digital Speed Camera,NEWELL HIGHWAY COONABARABRAN NORTHBOUND,,Y,1
10180.0,-32.747772600000005,151.5437185,Mobile Digital Speed Camera,CESSNOCK ROAD MAITLAND SOUTHBOUND,,Y,70
10181.0,-32.747772600000005,151.5437185,Mobile Digital Speed Camera,CESSNOCK ROAD MAITLAND SOUTHBOUND,,Y,20
10182.0,-32.747772600000005,151.5437185,Mobile Digital Speed Camera,CESSNOCK ROAD MAITLAND NORTHBOUND,,Y,32
10200.0,-32.7500893,151.8696834,Mobile Digital Speed Camera,MEDOWIE ROAD MEDOWIE SOUTHBOUND,,Y,5
10201.0,-32.802546,151.850501,Mobile Digital Speed Camera,MEDOWIE ROAD WILLIAMTOWN SOUTHBOUND,,Y,5
10202.0,-32.802546,151.850501,Mobile Digital Speed Camera,MEDOWIE ROAD WILLIAMTOWN NORTHBOUND,,Y,1
10204.0,-32.6645982,152.1572389,Mobile Digital Speed Camera,MYALL STREET TEA GARDENS EASTBOUND,,Y,2
10206.0,-32.6645982,152.1572389,Mobile Digital Speed Camera,MYALL STREET TEA GARDENS EASTBOUND,,Y,2
10210.0,-32.6981486,151.4092756,Mobile Digital Speed Camera,NEW ENGLAND HIGHWAY HARPERS HILL WESTBOUND,,Y,22
10212.0,-32.6661738,151.7272439,Mobile Digital Speed Camera,WARREN STREET SEAHAM SOUTHBOUND,,Y,3
10218.0,-32.398062100000004,151.9623983,Mobile Digital Speed Camera,COWPER STREET STROUD SOUTHBOUND,,Y,2
10224.0,-32.57380759999999,151.9188956,Mobile Digital Speed Camera,THE BUCKETTS WAY LIMEBURNERS CREEK NORTHBOUND,,Y,1
10226.0,-32.2076194,151.93934140000002,Mobile Digital Speed Camera,BUCKETTS WAY WARD RIVER NORTHBOUND,,Y,5
10227.0,-32.2207581,151.9372369,Mobile Digital Speed Camera,BUCKETTS WAY WARDS RIVER SOUTHBOUND,,Y,3
10228.0,-32.0051715,151.9586041,Mobile Digital Speed Camera,BUCKETTS WAY AND CHURCH STREET GLOUCESTER  NORTHBOUND,,Y,1
10229.0,-32.02444869999999,151.9533587,Mobile Digital Speed Camera,BUCKETTS WAY/CHURCH STREET GLOUCESTER SOUTHBOUND,,Y,2
10231.0,-32.6553869,151.8683913,Mobile Digital Speed Camera,PACIFIC HIGHWAY TWELVE MILE CREEK NORTHBOUND,,Y,44
10246.0,-32.310222700000004,150.8234388,Mobile Digital Speed Camera,DENMAN ROAD MUSWELLBROOK EASTBOUND,,Y,2
10247.0,-32.3296058,150.5576112,Mobile Digital Speed Camera,GOLDEN HIGHWAY SANDY HOLLOW WESTBOUND,,Y,1
10250.0,-30.5069228,151.6356351,Mobile Digital Speed Camera,NEW ENGLAND HIGHWAY ARMIDALE NORTHBOUND,,Y,12
10251.0,-30.314789299999997,151.6898311,Mobile Digital Speed Camera,NEW ENGLAND HIGHWAY BLACK MOUNTAIN NORTHBOUND,,Y,3
10252.0,-30.314789299999997,151.6898311,Mobile Digital Speed Camera,NEW ENGLAND HIGHWAY BLACK MOUNTAIN NORTHBOUND,,Y,6
10253.0,-30.325789399999998,151.6780762,Mobile Digital Speed Camera,NEW ENGLAND HIGHWAY BLACK MOUNTAIN SOUTHBOUND,,Y,21
10255.0,-32.9668197,151.62682180000002,Mobile Digital Speed Camera,THE ESPLANADE SPEERS POINT SOUTHBOUND,,Y,2
10256.0,-32.9668197,151.62682180000002,Mobile Digital Speed Camera,THE ESPLANADE SPEERS POINT NORTHBOUND,,Y,1
10274.0,-28.81772939999999,153.52844309999998,Mobile Digital Speed Camera,TAMARIND DRIVE CUMBALUM NORTHBOUND,,Y,35
10275.0,-28.81772939999999,153.52844309999998,Mobile Digital Speed Camera,TAMARIND DRIVE CUMBALUM SOUTHBOUND,,Y,15
10276.0,-28.848359000000002,153.54611830000002,Mobile Digital Speed Camera,TAMARIND DRIVE BALLINA SOUTHBOUND,,Y,2
10277.0,-28.799163399999998,153.52342040000002,Mobile Digital Speed Camera,TAMARIND DRIVE TINTENBAR NORTHBOUND,,Y,4
10280.0,-30.5213977,152.98271719999997,Mobile Digital Speed Camera,PACIFIC HIGHWAY URUNGA SOUTHBOUND,,Y,18
10282.0,-30.520321999999997,153.001023,Mobile Digital Speed Camera,GIINAGAY WAY URUNGA NORTHBOUND,,Y,64
10283.0,-30.544759399999997,153.00655980000002,Mobile Digital Speed Camera,GIINAGAY STREET URUNGA NORTHBOUND,,Y,8
10284.0,-30.5213977,152.98271719999997,Mobile Digital Speed Camera,PACIFIC HIGHWAY URUNGA SOUTHBOUND,,Y,18
10286.0,-30.147621,153.006848,Mobile Digital Speed Camera,ORARA WAY NANA GLEN NORTHBOUND,,Y,1
10287.0,-30.0509603,152.9787737,Mobile Digital Speed Camera,CORAMBA STREET GLENREAGH  NORTHBOUND,,Y,7
10288.0,-30.0509603,152.9787737,Mobile Digital Speed Camera,CORAMBA STREET GLENREAGH  NORTHBOUND,,Y,19
10290.0,-29.095812699999996,153.3396554,Mobile Digital Speed Camera,PACIFIC HIGHWAY WOODBURN (Z) NORTHBOUND,,Y,35
10291.0,-29.039020299999997,153.4008215,Mobile Digital Speed Camera,PACIFIC HIGHWAY RILEYS HILL SOUTHBOUND,,Y,2
10294.0,-30.0509603,152.9787737,Mobile Digital Speed Camera,CORAMBA STREET GLENREAGH SOUTHBOUND,,Y,1
10300.0,-29.0178114,153.4271099,Mobile Digital Speed Camera,PACIFIC HIGHWAY BROADWATER EASTBOUND,,Y,2
10301.0,-28.95,153.466667,Mobile Digital Speed Camera,PACIFIC HIGHWAY EAST WARDELL NORTHBOUND,,Y,12
10303.0,-28.95,153.466667,Mobile Digital Speed Camera,PACIFIC HIGHWAY EAST WARDELL NORTHBOUND,,Y,1
10307.0,-30.6545822,152.2041476,Mobile Digital Speed Camera,KEMPSEY ROAD WILLAWARRIN EASTBOUND,,Y,1
10310.0,-28.893272200000002,153.4817939,Mobile Digital Speed Camera,PACIFIC HIGHWAY PIMLICO NORTHBOUND,,Y,4
10311.0,-28.95,153.466667,Mobile Digital Speed Camera,PACIFIC HIGHWAY WARDELL NORTHBOUND,,Y,1
10315.0,-28.5543141,153.5074937,Mobile Digital Speed Camera,ARGYLE STREET MULLUMBIMBY WESTBOUND,,Y,14
10316.0,-28.5543141,153.5074937,Mobile Digital Speed Camera,ARGYLE STREET MULLUMBIMBY EASTBOUND,,Y,17
10318.0,-29.559824,151.8602199,Mobile Digital Speed Camera,NEW ENGLAND HIGHWAY DUNDEE SOUTHBOUND,,Y,2
10319.0,-31.338708500000003,152.0196025,Mobile Digital Speed Camera,OXLEY HIGHWAY YARROWITCH WESTBOUND,,Y,4
10326.0,-28.3560097,153.5728815,Mobile Digital Speed Camera,TWEED COAST ROAD HASTINGS POINT NORTHBOUND,,Y,1
10329.0,-28.3356473,153.5740863,Mobile Digital Speed Camera,TWEED COAST ROAD BOGANGAR SOUTHBOUND,,Y,4
10330.0,-30.016200800000004,153.17765380000003,Mobile Digital Speed Camera,PACIFIC HIGHWAY CORINDI BEACH SOUTHBOUND,,Y,2
10331.0,-30.016200800000004,153.17765380000003,Mobile Digital Speed Camera,PACIFIC HIGHWAY CORINDI BEACH SOUTHBOUND,,Y,32
10332.0,-30.016200800000004,153.17765380000003,Mobile Digital Speed Camera,PACIFIC HIGHWAY CORINDI BEACH SOUTHBOUND,,Y,4
10333.0,-30.016200800000004,153.17765380000003,Mobile Digital Speed Camera,PACIFIC HIGHWAY CORINDI BEACH SOUTHBOUND,,Y,2
10335.0,-28.3560097,153.5728815,Mobile Digital Speed Camera,TWEED COAST ROAD CHINDERAH NORTHBOUND,,Y,9
10336.0,-28.3560097,153.5728815,Mobile Digital Speed Camera,TWEED COAST ROAD CHINDERAH NORTHBOUND,,Y,2
10337.0,-28.2973076,153.57019409999998,Mobile Digital Speed Camera,TWEED COAST ROAD CASUARINA SOUTHBOUND,,Y,3
10340.0,-31.689992699999998,152.7336511,Mobile Digital Speed Camera,PACIFIC HIGHWAY MIDDLE BROTHER NORTHBOUND,,Y,1
10343.0,-31.634383000000003,152.723865,Mobile Digital Speed Camera,PACIFIC HIGHWAY KEW NORTHBOUND,,Y,16
10346.0,-34.51355529999999,146.2674267,Mobile Digital Speed Camera,IRRIGATION WAY STANBRIDGE EASTBOUND,,Y,3
10348.0,-34.5292344,146.3544208,Mobile Digital Speed Camera,IRRIGATION WAY LEETON EASTBOUND,,Y,2
10352.0,-29.3877159,153.2411499,Mobile Digital Speed Camera,PACIFIC HIGHWAY CHATSWORTH SOUTHBOUND,,Y,3
10357.0,-34.3582794,146.0358768,Mobile Digital Speed Camera,KIDMAN WAY HANWOOD SOUTHBOUND,,Y,1
10358.0,-34.4580364,146.0249666,Mobile Digital Speed Camera,KIDMAN WAY WILLBRIGGIE SOUTHBOUND,,Y,1
10362.0,-28.1879159,153.5148436,Mobile Digital Speed Camera,KENNEDY DRIVE TWEED HEADS WEST WESTBOUND,,Y,36
10365.0,-34.4580364,146.0249666,Mobile Digital Speed Camera,KIDMAN WAY WILLBRIGGIE SOUTHBOUND,,Y,2
10366.0,-34.4580364,146.0249666,Mobile Digital Speed Camera,KIDMAN WAY WILLBRIGGIE NORTHBOUND,,Y,1
10368.0,-34.4986123,146.01033059999997,Mobile Digital Speed Camera,KIDMAN WAY DARLINGTON POINT SOUTHBOUND,,Y,5
10371.0,-29.277365999999997,153.2174581,Mobile Digital Speed Camera,PACIFIC HIGHWAY JACKY BULBIN FLAT SOUTHBOUND,,Y,31
10373.0,-34.4986123,146.01033059999997,Mobile Digital Speed Camera,KIDMAN WAY DARLINGTON POINT SOUTHBOUND,,Y,3
10374.0,-34.4986123,146.01033059999997,Mobile Digital Speed Camera,KIDMAN WAY DARLINGTON POINT NORTHBOUND,,Y,1
10375.0,-34.4986123,146.01033059999997,Mobile Digital Speed Camera,KIDMAN WAY DARLINGTON POINT NORTHBOUND,,Y,1
10380.0,-28.86373619999999,153.5326189,Mobile Digital Speed Camera,RIVER STREET WEST BALLINA WESTBOUND,,Y,99
10381.0,-28.86373619999999,153.5326189,Mobile Digital Speed Camera,RIVER STREET WEST BALLINA WESTBOUND,,Y,53
10382.0,-28.86373619999999,153.5326189,Mobile Digital Speed Camera,RIVER STREET WEST BALLINA WESTBOUND,,Y,13
10383.0,-31.3689451,152.8011527,Mobile Digital Speed Camera,PACIFIC HIGHWAY (KERR STREET) BALLINA SOUTHBOUND,,Y,51
10400.0,-30.205784100000002,151.6755664,Mobile Digital Speed Camera,NEW ENGLAND HIGHWAY GUYRA NORTHBOUND,,Y,15
10410.0,-30.8817277,152.9372061,Mobile Digital Speed Camera,MACLEAY VALLEY WAY BARRAGANYATTI SOUTHBOUND,,Y,3
10411.0,-30.8817277,152.9372061,Mobile Digital Speed Camera,MACLEAY VALLEY WAY BARRAGANYATTI SOUTHBOUND,,Y,5
10412.0,-30.8817277,152.9372061,Mobile Digital Speed Camera,MACLEAY VALLEY WAY BARRAGANYATTI SOUTHBOUND,,Y,6
10413.0,-30.928295799999997,152.94108219999998,Mobile Digital Speed Camera,MACLEAY VALLEY WAY CLYBUCCA SOUTHBOUND,,Y,6
10414.0,-31.1123577,152.83016840000002,Mobile Digital Speed Camera,MCLEAY VALLEY WAY BARRAGANYATTI NORTHBOUND,,Y,20
10416.0,-31.1123577,152.83016840000002,Mobile Digital Speed Camera,MCLEAY VALLEY WAY BARRAGANYATTI SOUTHBOUND,,Y,4
10417.0,-31.1123577,152.83016840000002,Mobile Digital Speed Camera,MCLEAY VALLEY WAY BARRAGANYATTI  SOUTHBOUND,,Y,6
10423.0,-30.2383266,151.13139990000002,Mobile Digital Speed Camera,THUNDERBOLTS WAY BUNDARRA SOUTHBOUND,,Y,2
10430.0,-30.3089214,153.09976,Mobile Digital Speed Camera,PACIFIC HIGHWAY COFFS HARBOUR SOUTHBOUND,,Y,30
10433.0,-30.341743199999996,153.07244880000002,Mobile Digital Speed Camera,PACIFIC HIGHWAY BOAMBEE EAST SOUTHBOUND,,Y,13
10435.0,-30.364284,153.03899199999998,Mobile Digital Speed Camera,PACIFIC HIGHWAY BONVILLE SOUTHBOUND,,Y,35
10443.0,-29.9342943,153.0957351,Mobile Digital Speed Camera,PACIFIC HIGHWAY HALFWAY CREEK SOUTHBOUND,,Y,14
10446.0,-29.9342943,153.0957351,Mobile Digital Speed Camera,PACIFIC HIGHWAY HALFWAY CREEK SOUTHBOUND,,Y,5
10448.0,-29.9342943,153.0957351,Mobile Digital Speed Camera,PACIFIC HIGHWAY HALFWAY CREEK  NORTHBOUND,,Y,7
10449.0,-29.9342943,153.0957351,Mobile Digital Speed Camera,PACIFIC HIGHWAY HALFWAY CREEK SOUTHBOUND,,Y,10
10453.0,-28.812556,153.383383,Mobile Digital Speed Camera,BRUXNER HIGHWAY LINDENDALE  WESTBOUND,,Y,27
10454.0,-28.8182469,153.32749719999998,Mobile Digital Speed Camera,BALLINA ROAD GOONELLABAH WESTBOUND,,Y,85
10455.0,-28.815298699999996,153.286874,Mobile Digital Speed Camera,BRUXNER HIGHWAY LISMORE EASTBOUND,,Y,76
10456.0,-28.815298699999996,153.286874,Mobile Digital Speed Camera,BRUXNER HIGHWAY LISMORE WESTBOUND,,Y,77
10463.0,-30.459540500000003,151.3555334,Mobile Digital Speed Camera,THUNDERBOLTS WAY YARROWYCK NORTHBOUND,,Y,2
10470.0,-31.0997108,150.94144359999999,Mobile Digital Speed Camera,ARMIDALE ROAD EAST TAMWORTH SOUTHBOUND,,Y,12
10471.0,-31.1241952,150.98429869999998,Mobile Digital Speed Camera,ARMIDALE ROAD NEMINGHA NORTHBOUND,,Y,12
10474.0,-31.1106376,150.9977725,Mobile Digital Speed Camera,NEW ENGLAND HIGHWAY  NEMINGHA SOUTHBOUND,,Y,21
10481.0,-28.9323877,153.4355079,Mobile Digital Speed Camera,WARDELL ROAD WARDELL WESTBOUND,,Y,2
10484.0,-28.8968342,153.4354416,Mobile Digital Speed Camera,WARDELL ROAD MEERSCHAUM VALE NORTHBOUND,,Y,6
10485.0,-28.8968342,153.4354416,Mobile Digital Speed Camera,WARDELL ROAD MEERSCHAUM VALE NORTHBOUND,,Y,2
10498.0,-35.0846006,149.2529124,Mobile Digital Speed Camera,SUTTON ROAD GUNDAROO SOUTHBOUND,,Y,4
10504.0,-36.449670000000005,148.41315880000002,Mobile Digital Speed Camera,ALPINE WAY KOSCIUSZKO NATIONAL PARK EASTBOUND,,Y,1
10505.0,-36.449670000000005,148.41315880000002,Mobile Digital Speed Camera,ALPINE WAY KOSCIUSZKO NATIONAL PARK EASTBOUND,,Y,1
10518.0,-33.7908206,150.671978,Mobile Digital Speed Camera,GLENMORE PARKWAY GLENMORE PARK WESTBOUND,,Y,1
10520.0,-33.8973769,147.3127352,Mobile Digital Speed Camera,NEWELL HIGHWAY WYALONG WESTBOUND,,Y,1
10527.0,-33.7074328,151.12276430000003,Mobile Digital Speed Camera,GROSVENOR STREET WAHROONGA SOUTHBOUND,,Y,2
10529.0,-33.78770120000001,150.7714889,Mobile Digital Speed Camera,MAMRE ROAD ST CLAIR SOUTHBOUND,,Y,5
10531.0,-34.3355065,146.16710600000002,Mobile Digital Speed Camera,IRRIGATION WAY WIDGELLI NORTHBOUND,,Y,3
10532.0,-34.3355065,146.16710600000002,Mobile Digital Speed Camera,IRRIGATION WAY WIDGELLI SOUTHBOUND,,Y,6
10535.0,-33.78770120000001,150.7714889,Mobile Digital Speed Camera,MAMRE ROAD ST CLAIR NORTHBOUND,,Y,2
10538.0,-33.7945065,151.196447,Mobile Digital Speed Camera,PENSHURST STREET CHATSWOOD NORTHBOUND,,Y,6
10540.0,-34.3688297,148.29950209999998,Mobile Digital Speed Camera,BACK CREEK ROAD YOUNG SOUTHBOUND,,Y,3
10544.0,-33.7466399,150.67327590000002,Mobile Digital Speed Camera,GREAT WESTERN HIGHWAY EMU PLAINS  WESTBOUND,,Y,2
10545.0,-33.7466399,150.67327590000002,Mobile Digital Speed Camera,GREAT WESTERN HIGHWAY EMU PLAINS EASTBOUND,,Y,3
10546.0,-33.7466399,150.67327590000002,Mobile Digital Speed Camera,GREAT WESTERN HIGHWAY EMU PLAINS  WESTBOUND,,Y,13
10547.0,-33.7466399,150.67327590000002,Mobile Digital Speed Camera,GREAT WESTERN HIGHWAY EMU PLAINS EASTBOUND,,Y,6
10549.0,-33.74353,150.657074,Mobile Digital Speed Camera,OLD BATHURST ROAD EMU PLAINS WESTBOUND,,Y,6
10550.0,-33.742987,150.650607,Mobile Digital Speed Camera,OLD BATHURST ROAD EMU HEIGHTS WESTBOUND,,Y,11
10551.0,-33.7424683,150.6489233,Mobile Digital Speed Camera,OLD BATHURST ROAD EMU HEIGHTS EASTBOUND,,Y,17
10552.0,-33.7461689,150.6247998,Mobile Digital Speed Camera,OLD BATHURST ROAD BLAXLAND WESTBOUND,,Y,5
10553.0,-33.7457956,150.63153540000002,Mobile Digital Speed Camera,OLD BATHURST ROAD BLAXLAND EASTBOUND,,Y,10
10554.0,-33.7461689,150.6247998,Mobile Digital Speed Camera,OLD BATHURST ROAD BLAXLAND WESTBOUND,,Y,20
10559.0,-33.761657,150.6405007,Mobile Digital Speed Camera,GREAT WSTRN HWY/M4 WSTRN MWY GLENBROOK EASTBOUND,,Y,3
10575.0,-33.739416999999996,151.120374,Mobile Digital Speed Camera,KISSING POINT ROAD TURRAMURRA NORTHBOUND,,Y,2
10582.0,-33.8027309,151.1376353,Mobile Digital Speed Camera,PITTWATER ROAD NORTH RYDE NORTHBOUND,,Y,3
10588.0,-33.7625176,150.992333,Mobile Digital Speed Camera,SEVEN HILLS ROAD BAULKHAM HILLS EASTBOUND,,Y,4
10589.0,-33.7625176,150.992333,Mobile Digital Speed Camera,SEVEN HILLS ROAD BAULKHAM HILLS WESTBOUND,,Y,10
10590.0,-33.7625176,150.992333,Mobile Digital Speed Camera,SEVEN HILLS ROAD BAULKHAM HILLS EASTBOUND,,Y,7
10591.0,-33.7625176,150.992333,Mobile Digital Speed Camera,SEVEN HILLS ROAD BAULKHAM HILLS WESTBOUND,,Y,15
10597.0,-33.8071556,151.08455969999997,Mobile Digital Speed Camera,VICTORIA ROAD WEST RYDE EASTBOUND,,Y,4
10608.0,-33.8028358,151.19974340000002,Mobile Digital Speed Camera,MOWBRAY ROAD WILLOUGHBY WESTBOUND,,Y,18
10610.0,-34.53135820000001,148.220244,Mobile Digital Speed Camera,BURLEY GRIFFIN WAY COOTAMUNDRA WESTBOUND,,Y,15
10612.0,-34.53135820000001,148.220244,Mobile Digital Speed Camera,BURLEY GRIFFIN WAY COOTAMUNDRA WESTBOUND,,Y,3
10617.0,-33.709393299999995,151.1247591,Mobile Digital Speed Camera,JUNCTION ROAD WAHROONGA  WESTBOUND,,Y,15
10618.0,-33.709393299999995,151.1247591,Mobile Digital Speed Camera,JUNCTION ROAD WAHROONGA EASTBOUND,,Y,6
10619.0,-33.709393299999995,151.1247591,Mobile Digital Speed Camera,JUNCTION ROAD WAHROONGA EASTBOUND,,Y,1
10620.0,-35.131033200000005,147.352978,Mobile Digital Speed Camera,BOURKE STREET TURVEY PARK NORTHBOUND,,Y,96
10621.0,-33.797478000000005,151.209876,Mobile Digital Speed Camera,EASTERN VALLEY WAY WILLOUGHBY NORTHBOUND,,Y,22
10630.0,-33.9671027,147.1603969,Mobile Digital Speed Camera,NEWELL HIGHWAY WEST WYALONG NORTHBOUND,,Y,2
10631.0,-34.091412,147.1434497,Mobile Digital Speed Camera,NEWELL HIGHWAY ALLEENA NORTHBOUND,,Y,2
10632.0,-34.091412,147.1434497,Mobile Digital Speed Camera,NEWELL HIGHWAY ALLEENA NORTHBOUND,,Y,2
10633.0,-33.9671027,147.1603969,Mobile Digital Speed Camera,NEWELL  HIGHWAY WEST WYALONG NORTHBOUND,,Y,2
10641.0,-34.808459,148.62822250000002,Mobile Digital Speed Camera,HUME HIGHWAY BOOKHAM WESTBOUND,,Y,43
10642.0,-34.7736734,148.8159004,Mobile Digital Speed Camera,HUME HIGHWAY BOWNING EASTBOUND,,Y,4
10646.0,-33.10075,149.6947148,Mobile Digital Speed Camera,SOFALA ROAD SOFALA SOUTHBOUND,,Y,1
10662.0,-33.497398100000005,149.3239738,Mobile Digital Speed Camera,MID WESTERN HIGHWAY KINGS PLAINS EASTBOUND,,Y,1
10665.0,-33.487252500000004,149.4098344,Mobile Digital Speed Camera,MID WESTERN HIGHWAY BATHAMPTON WESTBOUND,,Y,1
10667.0,-33.3529864,149.1699371,Mobile Digital Speed Camera,MITCHELL HIGHWAY LUCKNOW EASTBOUND,,Y,11
10668.0,-33.416957399999994,149.26052980000003,Mobile Digital Speed Camera,MITCHELL HIGHWAY GUYONG EASTBOUND,,Y,7
10669.0,-33.433177,149.34791950000002,Mobile Digital Speed Camera,MITCHELL HIGHWAY VITTORIA EASTBOUND,,Y,1
10671.0,-33.433177,149.34791950000002,Mobile Digital Speed Camera,MITCHELL HIGHWAY VITTORIA EASTBOUND,,Y,1
10672.0,-33.423177700000004,149.4226526,Mobile Digital Speed Camera,MITCHELL HIGHWAY THE ROCKS WESTBOUND,,Y,2
10673.0,-33.4357935,149.3650106,Mobile Digital Speed Camera,MITCHELL HIGHWAY VITTORIA WESTBOUND,,Y,5
10674.0,-33.416957399999994,149.26052980000003,Mobile Digital Speed Camera,MITCHELL HIGHWAY GUYONG WESTBOUND,,Y,9
10675.0,-33.416957399999994,149.26052980000003,Mobile Digital Speed Camera,MITCHELL HIGHWAY GUYONG WESTBOUND,,Y,6
10676.0,-33.3529864,149.1699371,Mobile Digital Speed Camera,MITCHELL HIGHWAY LUCKNOW WESTBOUND,,Y,43
10679.0,-34.527758500000004,149.5617237,Mobile Digital Speed Camera,GOULBURN ROAD PEJAR  NORTHBOUND,,Y,1
10684.0,-34.50899879999999,149.54797240000002,Mobile Digital Speed Camera,GOULBURN ROAD WAYO SOUTHBOUND,,Y,4
10685.0,-34.50899879999999,149.54797240000002,Mobile Digital Speed Camera,GOULBURN ROAD WAYO SOUTHBOUND,,Y,1
10691.0,-34.50899879999999,149.54797240000002,Mobile Digital Speed Camera,GOULBURN ROAD WAYO  NORTHBOUND,,Y,1
10695.0,-34.577970799999996,150.3072493,Mobile Digital Speed Camera,ILLAWARRA HIGHWAY SUTTON FOREST EASTBOUND,,Y,4
10697.0,-34.587423,150.61181240000002,Mobile Digital Speed Camera,ILLAWARRA HIGHWAY ROBERTSON EASTBOUND,,Y,3
10698.0,-34.5892075,150.59816730000003,Mobile Digital Speed Camera,ILLAWARRA HIGHWAY ROBERTSON WESTBOUND,,Y,3
10700.0,-35.6871186,147.0335179,Mobile Digital Speed Camera,OLYMPIC HIGHWAY CULCAIRN SOUTHBOUND,,Y,30
10710.0,-34.615584999999996,150.781774,Mobile Digital Speed Camera,JAMBEROO ROAD JAMBEROO  WESTBOUND,,Y,1
10711.0,-34.627174600000004,150.77726850000002,Mobile Digital Speed Camera,JAMBEROO ROAD JAMBEROO EASTBOUND,,Y,1
10714.0,-34.627174600000004,150.77726850000002,Mobile Digital Speed Camera,JAMBEROO ROAD JAMBEROO EASTBOUND,,Y,4
10716.0,-34.644083,150.77385149999998,Mobile Digital Speed Camera,CHURCHILL ST (JAMBEROO ROAD) JAMBEROO SOUTHBOUND,,Y,6
10723.0,-33.45404750000001,151.3158746,Mobile Digital Speed Camera,GLENROCK PARADE TASCOTT WESTBOUND,,Y,3
10728.0,-33.029612,151.1331168,Mobile Digital Speed Camera,GREAT NORTH ROAD LAGUNA SOUTHBOUND,,Y,1
10730.0,-34.56672100000001,150.802051,Mobile Digital Speed Camera,PRINCES HIGHWAY ALBION PARK RAIL NORTHBOUND,,Y,3
10731.0,-34.563055600000006,150.7977601,Mobile Digital Speed Camera,PRINCES HIGHWAY ALBION PARK RAIL SOUTHBOUND,,Y,55
10732.0,-31.3689451,152.8011527,Mobile Digital Speed Camera,PACIFIC HIGHWAY ALBION PARK RAIL  NORTHBOUND,,Y,8
10733.0,-34.56672100000001,150.802051,Mobile Digital Speed Camera,PRINCES HIGHWAY ALBION PARK RAIL NORTHBOUND,,Y,33
10738.0,-28.9269135,152.37390459999997,Mobile Digital Speed Camera,BRUXNER HIGHWAY DRAKE  EASTBOUND,,Y,3
10741.0,-36.352519,148.76185759999998,Mobile Digital Speed Camera,KOSCIUSZKO ROAD BERRIDALE WESTBOUND,,Y,7
10742.0,-36.352519,148.76185759999998,Mobile Digital Speed Camera,KOSCIUSZKO ROAD BERRIDALE WESTBOUND,,Y,6
10751.0,-35.95086510000001,149.14531350000001,Mobile Digital Speed Camera,MONARO HIGHWAY BREDBO NORTHBOUND,,Y,18
10752.0,-35.95086510000001,149.14531350000001,Mobile Digital Speed Camera,MONARO HIGHWAY BREDBO NORTHBOUND,,Y,9
10761.0,-35.1702058,150.4439415,Mobile Digital Speed Camera,PRINCES HIGHWAY MONDAYONG NORTHBOUND,,Y,10
10770.0,-34.743410299999994,149.84304269999998,Mobile Digital Speed Camera,HUME HIGHWAY BOXERS CREEK EASTBOUND,,Y,37
10771.0,-34.7086413,150.0098438,Mobile Digital Speed Camera,HUME HIGHWAY MARULAN EASTBOUND,,Y,65
10772.0,-34.7086413,150.0098438,Mobile Digital Speed Camera,HUME HIGHWAY MARULAN WESTBOUND,,Y,30
10773.0,-34.7086413,150.0098438,Mobile Digital Speed Camera,HUME HIGHWAY MARULAN WESTBOUND,,Y,79
10780.0,-34.6377064,150.1342428,Mobile Digital Speed Camera,HUME HIGHWAY PADDYS RIVER WESTBOUND,,Y,53
10781.0,-34.6377064,150.1342428,Mobile Digital Speed Camera,HUME HIGHWAY PADDYS RIVER WESTBOUND,,Y,22
10782.0,-34.6377064,150.1342428,Mobile Digital Speed Camera,HUME HIGHWAY PADDYS RIVER SOUTHBOUND,,Y,1
10791.0,-35.904447,150.080262,Mobile Digital Speed Camera,PRINCESS HIGHWAY MORUYA  SOUTHBOUND,,Y,2
10792.0,-35.981226,150.1046092,Mobile Digital Speed Camera,PRINCES HIGHWAY BERGALIA SOUTHBOUND,,Y,27
10809.0,-29.467756599999998,149.7875621,Mobile Digital Speed Camera,GWYDIR HIGHWAY MOREE WESTBOUND,,Y,1
10812.0,-29.467756599999998,149.7875621,Mobile Digital Speed Camera,GWYDIR HIGHWAY MOREE WESTBOUND,,Y,3
10813.0,-29.467756599999998,149.7875621,Mobile Digital Speed Camera,GWYDIR HIGHWAY MOREE EASTBOUND,,Y,4
10821.0,-34.333999799999994,150.9130166,Mobile Digital Speed Camera,PRINCES HIGHWAY BULLI SOUTHBOUND,,Y,46
10828.0,-29.7388887,151.00609359999999,Mobile Digital Speed Camera,GWYDIR HIGHWAY ROB ROY EASTBOUND,,Y,1
10832.0,-34.3002297,150.9130215,Mobile Digital Speed Camera,M1 PRINCES MOTORWAY MADDENS PLAINS SOUTHBOUND,,Y,50
10835.0,-29.773072999999997,151.34143799999998,Mobile Digital Speed Camera,GWYDIR HIGHWAY ELSMORE SOUTHBOUND,,Y,1
10842.0,-34.813566200000004,150.5718546,Mobile Digital Speed Camera,MOSS VALE ROAD CAMBEWARRA SOUTHBOUND,,Y,1
10861.0,-34.3817187,150.8960755,Mobile Digital Speed Camera,PRINCES HIGHWAY CORRIMAL SOUTHBOUND,,Y,2
10862.0,-34.38293579999999,150.8950906,Mobile Digital Speed Camera,PRINCES HIGHWAY TOWRADGI SOUTHBOUND,,Y,52
10864.0,-29.09610859999999,152.0020534,Mobile Digital Speed Camera,NEW ENGLAND HIGHWAY TENTERFIELD SOUTHBOUND,,Y,2
10865.0,-29.311374,151.93452209999998,Mobile Digital Speed Camera,NEW ENGLAND HIGHWAY BOLIVIA SOUTHBOUND,,Y,1
10866.0,-29.311374,151.93452209999998,Mobile Digital Speed Camera,NEW ENGLAND HIGHWAY BOLIVIA SOUTHBOUND,,Y,1
10871.0,-34.494668,150.79503300000002,Mobile Digital Speed Camera,PRINCES HIGHWAY DAPTO NORTHBOUND,,Y,64
10894.0,-35.1968913,148.1534808,Mobile Digital Speed Camera,GOCUP ROAD SOUTH GUNDAGAI SOUTHBOUND,,Y,1
10911.0,-34.7153722,150.8422209,Mobile Digital Speed Camera,PRINCES HIGHWAY GERRINGONG SOUTHBOUND,,Y,30
10920.0,-34.743410299999994,149.84304269999998,Mobile Digital Speed Camera,HUME HIGHWAY BOXERS CREEK  EASTBOUND,,Y,30
10921.0,-34.743410299999994,149.84304269999998,Mobile Digital Speed Camera,HUME HIGHWAY BOXERS CREEK WESTBOUND,,Y,39
10932.0,-34.1456261,150.9936021,Mobile Digital Speed Camera,M1 PRINCES MOTORWAY  HELENSBRUGH SOUTHBOUND,,Y,34
10940.0,-34.3002297,150.9130215,Mobile Digital Speed Camera,M1 PRINCES MOTORWAY CATARACT NORTHBOUND,,Y,11
10941.0,-34.3002297,150.9130215,Mobile Digital Speed Camera,M1 PRINCES MOTORWAY CATARACT SOUTHBOUND,,Y,2
10950.0,-34.4562961,150.8438715,Mobile Digital Speed Camera,PRINCES HIGHWAY UNANDERRA NORTHBOUND,,Y,30
10951.0,-34.4562961,150.8438715,Mobile Digital Speed Camera,PRINCES HIGHWAY UNANDERRA NORTHBOUND,,Y,125
10953.0,-35.2612865,147.1437984,Mobile Digital Speed Camera,OLYMPIC HIGHWAY THE ROCK NORTHBOUND,,Y,7
10954.0,-35.209344200000004,147.2210188,Mobile Digital Speed Camera,OLYMPIC HIGHWAY URANQUINTY NORTHBOUND,,Y,2
10956.0,-35.209344200000004,147.2210188,Mobile Digital Speed Camera,OLYMPIC HIGHWAY URANQUINTY NORTHBOUND,,Y,1
10958.0,-34.6229529,144.3572022,Mobile Digital Speed Camera,STURT HIGHWAY YARRAGUNGRY WESTBOUND,,Y,1
10960.0,-35.0003217,146.8260653,Mobile Digital Speed Camera,STURT HIGHWAY GALORE WESTBOUND,,Y,1
10963.0,-34.812406,146.5812767,Mobile Digital Speed Camera,STURT HIGHWAY GILLENBAH EASTBOUND,,Y,1
10964.0,-34.812406,146.5812767,Mobile Digital Speed Camera,STURT HIGHWAY GILLENBAH EASTBOUND,,Y,1
10968.0,-34.923455499999996,146.6547889,Mobile Digital Speed Camera,STURT HIGHWAY SANDIGO EASTBOUND,,Y,2
10970.0,-34.829593700000004,149.59156049999999,Mobile Digital Speed Camera,FEDERAL HIGHWAY YARRA NORTHBOUND,,Y,44
10971.0,-34.829593700000004,149.59156049999999,Mobile Digital Speed Camera,FEDERAL HIGHWAY YARRA NORTHBOUND,,Y,21
10972.0,-34.829593700000004,149.59156049999999,Mobile Digital Speed Camera,FEDERAL HIGHWAY YARRA WESTBOUND,,Y,10
10973.0,-34.829593700000004,149.59156049999999,Mobile Digital Speed Camera,FEDERAL HIGHWAY YARRA WESTBOUND,,Y,13
10974.0,-35.1076777,147.2217555,Mobile Digital Speed Camera,STURT HIGHWAY YARRAGUNDRY WESTBOUND,,Y,1
10976.0,-35.0003217,146.8260653,Mobile Digital Speed Camera,STURT HIGHWAY GALORE SOUTHBOUND,,Y,3
10977.0,-35.0003217,146.8260653,Mobile Digital Speed Camera,STURT HIGHWAY GALORE WESTBOUND,,Y,2
10979.0,-34.923455499999996,146.6547889,Mobile Digital Speed Camera,STURT HIGHWAY SANDIGO WESTBOUND,,Y,1
10980.0,-34.923455499999996,146.6547889,Mobile Digital Speed Camera,STURT HIGHWAY SANDIGO WESTBOUND,,Y,3
10982.0,-35.0574569,147.0263881,Mobile Digital Speed Camera,STURT HIGHWAY BROOKDALE EASTBOUND,,Y,2
10983.0,-35.0574569,147.0263881,Mobile Digital Speed Camera,STURT HIGHWAY BROOKDALE EASTBOUND,,Y,1
10984.0,-35.078126,147.08834769999999,Mobile Digital Speed Camera,STURT HIGHWAY COLLINGULLIE EASTBOUND,,Y,1
10986.0,-35.078126,147.08834769999999,Mobile Digital Speed Camera,STURT HIGHWAY COLLINGULLIE WESTBOUND,,Y,2
10990.0,-35.0574569,147.0263881,Mobile Digital Speed Camera,STURT HIGHWAY BROOKDALE WESTBOUND,,Y,2
11000.0,-33.932854999999996,151.011572,Mobile Digital Speed Camera,EDGAR STREET CONDELL PARK NORTHBOUND,,Y,42
11001.0,-33.9351704,151.01043,Mobile Digital Speed Camera,EDGAR STREET BANKSTOWN SOUTHBOUND,,Y,14
11013.0,-36.2467099,149.144275,Mobile Digital Speed Camera,MONARO HIGHWAY COOMA - 2630 NORTHBOUND,,Y,3
11014.0,-36.2467099,149.144275,Mobile Digital Speed Camera,MONARO HIGHWAY COOMA  WESTBOUND,,Y,1
11020.0,-33.8039721,151.02976809999998,Mobile Digital Speed Camera,KISSING POINT ROAD OATLANDS EASTBOUND,,Y,177
11021.0,-33.80438579999999,151.02680680000003,Mobile Digital Speed Camera,KISSING POINT ROAD PARRAMATTA WESTBOUND,,Y,117
11022.0,-36.380085799999996,149.21476299999998,Mobile Digital Speed Camera,MONARO HIGHWAY ROCK FLAT  NORTHBOUND,,Y,2
11024.0,-36.0155141,149.1477976,Mobile Digital Speed Camera,MONARO HIGHWAY BILLILINGRA   SOUTHBOUND,,Y,1
11030.0,-33.8598354,151.14242019999998,Mobile Digital Speed Camera,LYONS ROAD RUSSELL LEA EASTBOUND,,Y,29
11045.0,-36.2214318,150.1329188,Mobile Digital Speed Camera,PRINCES HIGHWAY NAROOMA SOUTHBOUND,,Y,1
11054.0,-36.10629060000001,150.05735359999997,Mobile Digital Speed Camera,PRINCES HIGHWAY BODALLA SOUTHBOUND,,Y,1
11055.0,-36.10629060000001,150.05735359999997,Mobile Digital Speed Camera,PRINCES HIGHWAY BODALLA NORTHBOUND,,Y,2
11057.0,-36.10629060000001,150.05735359999997,Mobile Digital Speed Camera,PRINCES HIGHWAY BODALLA SOUTHBOUND,,Y,8
11058.0,-36.10629060000001,150.05735359999997,Mobile Digital Speed Camera,PRINCES HIGHWAY BODALLA SOUTHBOUND,,Y,5
11060.0,-36.0390811,150.08414119999998,Mobile Digital Speed Camera,PRINCES HIGHWAY TURLINJAH NORTHBOUND,,Y,2
11066.0,-35.8354451,150.1281656,Mobile Digital Speed Camera,PRINCES HIGHWAY BIMBIMBIE SOUTHBOUND,,Y,1
11067.0,-35.6499065,150.2388433,Mobile Digital Speed Camera,PRINCES HIGHWAY RUNNYFORD SOUTHBOUND,,Y,11
11068.0,-35.6499065,150.2388433,Mobile Digital Speed Camera,PRINCES HIGHWAY RUNNYFORD SOUTHBOUND,,Y,2
11073.0,-35.8129811,150.12942809999998,Mobile Digital Speed Camera,PRINCES HIGHWAY JEREMADRA SOUTHBOUND,,Y,1
11074.0,-35.8354451,150.1281656,Mobile Digital Speed Camera,PRINCES HIGHWAY BIMBIMBIE SOUTHBOUND,,Y,9
11076.0,-35.905281099999996,150.08146599999998,Mobile Digital Speed Camera,PRINCES HIGHWAY MORUYA EASTBOUND,,Y,3
11079.0,-35.6499065,150.2388433,Mobile Digital Speed Camera,PRINCES HIGHWAY RUNNYFORD NORTHBOUND,,Y,3
11080.0,-33.8976453,150.9934324,Mobile Digital Speed Camera,HUME HIGHWAY BASS HILL EASTBOUND,,Y,95
11081.0,-33.899699,150.99337,Mobile Digital Speed Camera,HUME HIGHWAY BASS HILL WESTBOUND,,Y,87
11082.0,-33.90092,150.9949,Mobile Digital Speed Camera,LIVERPOOL ROAD BASS HILL EASTBOUND,,Y,52
11083.0,-33.899699,150.99337,Mobile Digital Speed Camera,HUME HIGHWAY BASS HILL WESTBOUND,,Y,96
11084.0,-33.899699,150.99337,Mobile Digital Speed Camera,HUME HIGHWAY BASS HILL WESTBOUND,,Y,91
11085.0,-33.8976453,150.9934324,Mobile Digital Speed Camera,HUME HIGHWAY BASS HILL EASTBOUND,,Y,55
11090.0,-33.635906,150.2852983,Mobile Digital Speed Camera,GREAT WESTERN HIGHWAY BLACKHEATH NORTHBOUND,,Y,47
11092.0,-33.637864,150.285325,Mobile Digital Speed Camera,GREAT WESTERN HIGHWAY BLACKHEATH SOUTHBOUND,,Y,16
11093.0,-33.635906,150.2852983,Mobile Digital Speed Camera,GREAT WESTERN HIGHWAY BLACKHEATH NORTHBOUND,,Y,65
11094.0,-33.637864,150.285325,Mobile Digital Speed Camera,GREAT WESTERN HIGHWAY BLACKHEATH SOUTHBOUND,,Y,65
11100.0,-33.7884249,150.9196134,Mobile Digital Speed Camera,BLACKTOWN ROAD BLACKTOWN EASTBOUND,,Y,194
11109.0,-36.234901,149.12581,Mobile Digital Speed Camera,SHARP STREET COOMA WESTBOUND,,Y,24
11110.0,-33.980571999999995,151.106822,Mobile Digital Speed Camera,KING GEORGES ROAD SOUTH HURSTVILLE NORTHBOUND,,Y,57
11112.0,-33.9826229,151.10894230000002,Mobile Digital Speed Camera,KING GEORGES ROAD BLAKEHURST SOUTHBOUND,,Y,50
11113.0,-33.9826229,151.10894230000002,Mobile Digital Speed Camera,KING GEORGES ROAD BLAKEHURST  SOUTHBOUND,,Y,32
11125.0,-32.6120337,148.948318,Mobile Digital Speed Camera,MITCHELL HIGHWAY APSLEY NORTHBOUND,,Y,3
11128.0,-32.8558397,148.9120034,Mobile Digital Speed Camera,MITCHELL HIGHWAY CUNDUMBUL SOUTHBOUND,,Y,11
11129.0,-32.967417499999996,148.88663369999998,Mobile Digital Speed Camera,MITCHELL HIGHWAY LARRAS LEE SOUTHBOUND,,Y,3
11134.0,-33.1144274,148.93465780000002,Mobile Digital Speed Camera,MITCHELL HIGHWAY MOLONG NORTHBOUND,,Y,3
11136.0,-32.967417499999996,148.88663369999998,Mobile Digital Speed Camera,MITCHELL HIGHWAY LARRAS LEE NORTHBOUND,,Y,1
11141.0,-33.3173267,149.09395519999998,Mobile Digital Speed Camera,FOREST ROAD ORANGE SOUTHBOUND,,Y,5
11144.0,-33.2619756,149.01746819999997,Mobile Digital Speed Camera,THE ESCORT WAY ORANGE WESTBOUND,,Y,1
11145.0,-33.2335106,148.8461186,Mobile Digital Speed Camera,THE ESCORT WAY BOREE WESTBOUND,,Y,1
11146.0,-33.2335106,148.8461186,Mobile Digital Speed Camera,THE ESCORT WAY BOREE WESTBOUND,,Y,1
11147.0,-33.897568,151.26204109999998,Mobile Digital Speed Camera,BIRRELL STREET BONDI  WESTBOUND,,Y,6
11150.0,-33.888115500000005,151.16550049999998,Mobile Digital Speed Camera,PARRAMATTA ROAD STANMORE EASTBOUND,,Y,3
11151.0,-33.8659646,150.7780318,Mobile Digital Speed Camera,BLAXCELL STREET SOUTH GRANVILLE NORTHBOUND,,Y,20
11152.0,-33.8458391,151.0096446,Mobile Digital Speed Camera,BLAXCELL STREET GRANVILLE SOUTHBOUND,,Y,14
11153.0,-33.8458391,151.0096446,Mobile Digital Speed Camera,BLAXCELL STREET GRANVILLE SOUTHBOUND,,Y,5
11154.0,-33.853842799999995,151.0083183,Mobile Digital Speed Camera,BLAXCELL STREET SOUTH GRANVILLE SOUTHBOUND,,Y,14
11155.0,-33.853842799999995,151.0083183,Mobile Digital Speed Camera,BLAXCELL STREET SOUTH GRANVILLE SOUTHBOUND,,Y,10
11156.0,-33.8659646,150.7780318,Mobile Digital Speed Camera,BLAXCELL STREET SOUTH GRANVILLE  NORTHBOUND,,Y,18
11157.0,-33.8458391,151.0096446,Mobile Digital Speed Camera,BLAXCELL STREET GRANVILLE  NORTHBOUND,,Y,2
11159.0,-33.905685299999995,151.04947230000002,Mobile Digital Speed Camera,BORONIA ROAD GREENACRE  WESTBOUND,,Y,24
11161.0,-33.908113799999995,151.0662861,Mobile Digital Speed Camera,JUNO PARADE GREENACRE EASTBOUND,,Y,7
11162.0,-33.908113799999995,151.0662861,Mobile Digital Speed Camera,JUNO PARADE GREENACRE  WESTBOUND,,Y,11
11170.0,-33.9738324,151.12936430000002,Mobile Digital Speed Camera,PRINCES HIGHWAY BEVERLEY PARK SOUTHBOUND,,Y,3
11171.0,-33.977193799999995,151.12436530000002,Mobile Digital Speed Camera,PRINCES HIGHWAY CARLTON SOUTHBOUND,,Y,8
11172.0,-33.9738324,151.12936430000002,Mobile Digital Speed Camera,PRINCES HIGHWAY BEVERLEY PARK SOUTHBOUND,,Y,78
11182.0,-33.9390731,150.9125405,Mobile Digital Speed Camera,HUME HIGHWAY CASULA  WESTBOUND,,Y,56
11190.0,-33.8991856,151.047827,Mobile Digital Speed Camera,HUME HIGHWAY GREENACRE NORTHBOUND,,Y,102
11191.0,-33.8869716,151.07257180000002,Mobile Digital Speed Camera,LIVERPOOL ROAD GREENACRE EASTBOUND,,Y,77
11192.0,-33.8926879,151.05573669999998,Mobile Digital Speed Camera,HUME HIGHWAY GREENACRE EASTBOUND,,Y,82
11194.0,-33.8618012,150.9939098,Mobile Digital Speed Camera,RAWSON ROAD GUILDFORD WESTBOUND,,Y,7
11196.0,-33.8642754,151.0366199,Mobile Digital Speed Camera,VAUGHAN STREET LIDCOMBE EASTBOUND,,Y,2
11197.0,-33.8618012,150.9939098,Mobile Digital Speed Camera,RAWSON ROAD GUILDFORD EASTBOUND,,Y,8
11200.0,42.8897471,-85.7618428,Mobile Digital Speed Camera,WELLINGTON ROAD SOUTH GRANDVILLE EASTBOUND,,Y,3
11201.0,-33.8642754,151.0366199,Mobile Digital Speed Camera,VAUGHAN STREET LIDCOMBE EASTBOUND,,Y,12
11202.0,-33.8642754,151.0366199,Mobile Digital Speed Camera,VAUGHAN STREET LIDCOMBE WESTBOUND,,Y,49
11203.0,-33.8640969,151.02121430000003,Mobile Digital Speed Camera,WELLINGTON ROAD AUBURN WESTBOUND,,Y,10
11210.0,-34.0478665,151.1401536,Mobile Digital Speed Camera,KINGSWAY WOOLOOWARE WESTBOUND,,Y,57
11217.0,-33.9070494,151.05699099999998,Mobile Digital Speed Camera,WATERLOO ROAD GREENACRE NORTHBOUND,,Y,1
11218.0,-33.9070494,151.05699099999998,Mobile Digital Speed Camera,WATERLOO ROAD GREENACRE NORTHBOUND,,Y,8
11219.0,-33.9070494,151.05699099999998,Mobile Digital Speed Camera,WATERLOO ROAD GREENACRE NORTHBOUND,,Y,3
11220.0,-33.9070494,151.05699099999998,Mobile Digital Speed Camera,WATERLOO ROAD GREENACRE SOUTHBOUND,,Y,10
11221.0,-34.519290000000005,150.29786069999997,Mobile Digital Speed Camera,M31 HUME MOTORWAY DENHAM COURT NORTHBOUND,,Y,4
11222.0,-34.519290000000005,150.29786069999997,Mobile Digital Speed Camera,M31 HUME MOTORWAY INGLEBURN SOUTHBOUND,,Y,16
11223.0,-33.9070494,151.05699099999998,Mobile Digital Speed Camera,WATERLOO ROAD GREENACRE SOUTHBOUND,,Y,9
11230.0,-33.738493,150.8571677,Mobile Digital Speed Camera,RICHMOND ROAD DEAN PARK EASTBOUND,,Y,8
11234.0,-33.68369860000001,151.2610741,Mobile Digital Speed Camera,MONA VALE ROAD INGLESIDE EASTBOUND,,Y,16
11236.0,-35.0824973,149.03012819999998,Mobile Digital Speed Camera,BARTON HIGHWAY SPRINGRANGE SOUTHBOUND,,Y,3
11237.0,-35.056711799999995,149.0214315,Mobile Digital Speed Camera,BARTON HIGHWAY JEIR SOUTHBOUND,,Y,1
11238.0,-35.159397600000005,149.06164980000003,Mobile Digital Speed Camera,BARTON HIGHWAY WALLAROO SOUTHBOUND,,Y,2
11240.0,-33.7316815,151.30131569999998,Mobile Digital Speed Camera,PITTWATER ROAD COLLAROY SOUTHBOUND,,Y,97
11241.0,-33.7316815,151.30131569999998,Mobile Digital Speed Camera,PITTWATER ROAD COLLAROY EASTBOUND,,Y,142
11243.0,-35.056711799999995,149.0214315,Mobile Digital Speed Camera,BARTON HIGHWAY JEIR  NORTHBOUND,,Y,1
11247.0,-33.9116345,151.2587555,Mobile Digital Speed Camera,ARDEN STREET CLOVELLY SOUTHBOUND,,Y,15
11250.0,-33.7635509,150.8604541,Mobile Digital Speed Camera,KNOX ROAD DOONSIDE SOUTHBOUND,,Y,193
11251.0,-33.7635509,150.8604541,Mobile Digital Speed Camera,KNOX ROAD DOONSIDE NORTHBOUND,,Y,89
11252.0,-33.7635509,150.8604541,Mobile Digital Speed Camera,KNOX ROAD DOONSIDE SOUTHBOUND,,Y,164
11253.0,-33.7635509,150.8604541,Mobile Digital Speed Camera,KNOX ROAD DOONSIDE NORTHBOUND,,Y,54
11254.0,-33.924679,151.1922601,Mobile Digital Speed Camera,COWARD STREET MASCOT EASTBOUND,,Y,8
11257.0,-33.471826,151.2884585,Mobile Digital Speed Camera,WOY WOY ROAD WOY WOY NORTHBOUND,,Y,4
11258.0,-33.471826,151.2884585,Mobile Digital Speed Camera,WOY WOY ROAD KARIONG NORTHBOUND,,Y,3
11259.0,-33.471826,151.2884585,Mobile Digital Speed Camera,WOY WOY ROAD KARIONG SOUTHBOUND,,Y,2
11260.0,-33.8542473,151.14964719999998,Mobile Digital Speed Camera,LYONS ROAD DRUMMOYNE WESTBOUND,,Y,5
11264.0,-33.8916552,151.07307419999998,Mobile Digital Speed Camera,COSGROVE ROAD STRATHFIELD SOUTH SOUTHBOUND,,Y,12
11265.0,-33.8881459,151.07394219999998,Mobile Digital Speed Camera,COSGROVE ROAD STRATHFIELD SOUTH  NORTHBOUND,,Y,2
11266.0,-33.8916552,151.07307419999998,Mobile Digital Speed Camera,COSGROVE ROAD STRATHFIELD SOUTH SOUTHBOUND,,Y,5
11267.0,-33.301349800000004,150.70132180000002,Mobile Digital Speed Camera,PUTTY ROAD COLO HEIGHTS NORTHBOUND,,Y,4
11270.0,-33.7027656,151.0287003,Mobile Digital Speed Camera,NEW LINE ROAD DURAL SOUTHBOUND,,Y,37
11285.0,-33.5235942,151.3122438,Mobile Digital Speed Camera,HOBART AVENUE UMINA BEACH EASTBOUND,,Y,3
11289.0,-33.5167146,151.3296779,Mobile Digital Speed Camera,BARRENJOEY ROAD ETTALONG BEACH SOUTHBOUND,,Y,3
11290.0,-33.5167146,151.3296779,Mobile Digital Speed Camera,BARRENJOEY STREET ETTALONG BEACH NORTHBOUND,,Y,5
11300.0,-33.955819,150.835332,Mobile Digital Speed Camera,CAMDEN VALLEY WAY LEPPINGTON NORTHBOUND,,Y,2
11301.0,-33.955819,150.835332,Mobile Digital Speed Camera,CAMDEN VALLEY WAY LEPPINGTON SOUTHBOUND,,Y,6
11302.0,-33.955819,150.835332,Mobile Digital Speed Camera,CAMDEN VALLEY WAY LEPPINGTON SOUTHBOUND,,Y,6
11321.0,-34.035616999999995,150.96057539999998,Mobile Digital Speed Camera,HEATHCOTE ROAD LUCAS HEIGHTS SOUTHBOUND,,Y,38
11330.0,-34.0486339,150.7156537,Mobile Digital Speed Camera,CAMDEN VALLEY WAY ELDERSLIE NORTHBOUND,,Y,72
11331.0,-34.0486339,150.7156537,Mobile Digital Speed Camera,CAMDEN VALLEY WAY ELDERSLIE WESTBOUND,,Y,58
11354.0,-28.324558000000003,153.41473290000002,Mobile Digital Speed Camera,BRAY STREET (TWEED VALLEY WAY) SOUTH MURWILLUMBAH NORTHBOUND,,Y,3
11360.0,-33.6945446,150.9218397,Mobile Digital Speed Camera,WINDSOR ROAD ROUSE HILL SOUTHBOUND,,Y,27
11370.0,-33.7664875,150.7504062,Mobile Digital Speed Camera,GREAT WESTERN HIGHWAY WERRINGTON EASTBOUND,,Y,66
11371.0,-33.787026000000004,150.845033,Mobile Digital Speed Camera,GREAT WESTERN HIGHWAY MINCHINBURY WESTBOUND,,Y,13
11372.0,-33.7775571,150.8016464,Mobile Digital Speed Camera,GREAT WESTERN HIGHWAY COLYTON WESTBOUND,,Y,204
11373.0,-33.7752641,150.7955517,Mobile Digital Speed Camera,GREAT WESTERN HIGHWAY OXLEY PARK EASTBOUND,,Y,184
11374.0,-33.7664875,150.7504062,Mobile Digital Speed Camera,GREAT WESTERN HIGHWAY WERRINGTON WESTBOUND,,Y,9
11377.0,-34.6670365,146.4517554,Mobile Digital Speed Camera,IRRIGATION WAY CUDGEL EASTBOUND,,Y,2
11381.0,-33.718422100000005,150.38274619999999,Mobile Digital Speed Camera,GREAT WESTERN HIGHWAY WENTWORTH FALLS WESTBOUND,,Y,35
11388.0,-29.634199300000002,152.10361809999998,Mobile Digital Speed Camera,GWYDIR HIGHWAY GLEN INNES  WESTBOUND,,Y,10
11389.0,-29.634199300000002,152.10361809999998,Mobile Digital Speed Camera,GWYDIR HIGHWAY GLEN INNES  WESTBOUND,,Y,1
11390.0,-33.8906316,151.2377804,Mobile Digital Speed Camera,OXFORD STREET CENTENNIAL PARK WESTBOUND,,Y,30
11393.0,-29.7737325,151.1111791,Mobile Digital Speed Camera,GWYDIR HIGHWAY INVERELL  WESTBOUND,,Y,2
11394.0,-29.7737325,151.1111791,Mobile Digital Speed Camera,GWYDIR HIGHWAY INVERELL  WESTBOUND,,Y,2
11395.0,-29.7737325,151.1111791,Mobile Digital Speed Camera,GWYDIR HIGHWAY INVERELL  WESTBOUND,,Y,6
11396.0,-29.7737325,151.1111791,Mobile Digital Speed Camera,GWYDIR HIGHWAY INVERELL  WESTBOUND,,Y,2
11398.0,-29.716131199999996,150.9255898,Mobile Digital Speed Camera,GWYDIR HIGHWAY LITTLE PLAIN  WESTBOUND,,Y,1
11400.0,-29.628505800000003,150.7768828,Mobile Digital Speed Camera,GWYDIR HIGHWAY DELUNGRA  WESTBOUND,,Y,3
11411.0,-34.6670365,146.4517554,Mobile Digital Speed Camera,IRRIGATION WAY CUDGEL WESTBOUND,,Y,1
11413.0,-34.650654700000004,146.4277401,Mobile Digital Speed Camera,IRRIGATION WAY YANCO NORTHBOUND,,Y,3
11417.0,-34.650654700000004,146.4277401,Mobile Digital Speed Camera,IRRIGATION WAY YANCO SOUTHBOUND,,Y,8
11420.0,-31.673838800000002,148.7131866,Mobile Digital Speed Camera,NEWELL HIGHWAY GILGANDRA SOUTHBOUND,,Y,3
11429.0,-31.673838800000002,148.7131866,Mobile Digital Speed Camera,NEWELL HIGHWAY GILGANDRA NORTHBOUND,,Y,1
11430.0,-33.2323872,150.02612340000002,Mobile Digital Speed Camera,CASTLEREAGH HIGHWAY BEN BULLEN NORTHBOUND,,Y,12
11431.0,-33.2743217,150.03448740000002,Mobile Digital Speed Camera,CASTLEREAGH HIGHWAY CULLEN BULLEN NORTHBOUND,,Y,3
11432.0,-33.2323872,150.02612340000002,Mobile Digital Speed Camera,CASTLEREAGH HIGHWAY BEN BULLEN SOUTHBOUND,,Y,9
11438.0,-36.5185321,149.2814121,Mobile Digital Speed Camera,MONARO HIGHWAY/BOMBALA STREET NIMMITABEL   NORTHBOUND,,Y,1
11440.0,-32.396767100000005,148.8278009,Mobile Digital Speed Camera,MITCHELL HIGHWAY GEURIE EASTBOUND,,Y,5
11441.0,-32.396767100000005,148.8278009,Mobile Digital Speed Camera,MITCHELL HIGHWAY GEURIE WESTBOUND,,Y,5
11443.0,-32.4174624,148.847468,Mobile Digital Speed Camera,BUCKENBAH STREET/MITCHELL HIGHWAY GEURIE EASTBOUND,,Y,2
11455.0,-37.0770836,149.87382649999998,Mobile Digital Speed Camera,PRINCES HIGHWAY EDEN SOUTHBOUND,,Y,2
11456.0,-37.053284000000005,149.901673,Mobile Digital Speed Camera,PRINCES HIGHWAY EDEN NORTHBOUND,,Y,1
11461.0,-35.6499065,150.2388433,Mobile Digital Speed Camera,PRINCES HIGHWAY KINGSWOOD SOUTHBOUND,,Y,2
11469.0,-36.85686629999999,149.8357969,Mobile Digital Speed Camera,PRINCES HIGHWAY YELLOW PINCH EASTBOUND,,Y,2
11471.0,-33.0315314,149.900577,Mobile Digital Speed Camera,CASTLEREAGH HIGHWAY RUNNING STREAM SOUTHBOUND,,Y,4
11473.0,-33.083878999999996,149.9429121,Mobile Digital Speed Camera,CASTLEREAGH HIGHWAY ROUND SWAMP SOUTHBOUND,,Y,5
11478.0,-36.627720399999994,149.5695186,Mobile Digital Speed Camera,SNOWY MOUNTAINS HIGHWAY BEMBOKA WESTBOUND,,Y,5
11488.0,-36.627720399999994,149.5695186,Mobile Digital Speed Camera,SNOWY MOUNTAINS HIGHWAY BEMBOKA EASTBOUND,,Y,1
11489.0,-36.627720399999994,149.5695186,Mobile Digital Speed Camera,SNOWY MOUNTAINS HIGHWAY BEMBOKA EASTBOUND,,Y,1
11490.0,-33.5387373,149.2533762,Mobile Digital Speed Camera,MID WESTERN HIGHWAY BLAYNEY NORTHBOUND,,Y,34
11492.0,-33.5385561,149.24803880000002,Mobile Digital Speed Camera,MID WESTERN HWY - MARTHA ST BLAYNEY WESTBOUND,,Y,70
11500.0,-32.2505493,148.6124036,Mobile Digital Speed Camera,WINGEWARRA STREET DUBBO WESTBOUND,,Y,72
11501.0,-32.2505493,148.6124036,Mobile Digital Speed Camera,WINGEWARRA STREET DUBBO EASTBOUND,,Y,87
11503.0,-32.2505493,148.6124036,Mobile Digital Speed Camera,WINGEWARRA STREET DUBBO WESTBOUND,,Y,40
11510.0,-33.4195157,149.6221935,Mobile Digital Speed Camera,GREAT WESTERN HIGHWAY KELSO EASTBOUND,,Y,78
11511.0,-33.4195157,149.6221935,Mobile Digital Speed Camera,GREAT WESTERN HIGHWAY KELSO WESTBOUND,,Y,83
11512.0,-33.4195157,149.6221935,Mobile Digital Speed Camera,GREAT WESTERN HIGHWAY KELSO WESTBOUND,,Y,14
11513.0,-33.4195157,149.6221935,Mobile Digital Speed Camera,GREAT WESTERN HIGHWAY KELSO EASTBOUND,,Y,13
11523.0,-33.8585711,151.0239074,Mobile Digital Speed Camera,CUMBERLAND ROAD AUBURN  NORTHBOUND,,Y,21
11525.0,-33.8585711,151.0239074,Mobile Digital Speed Camera,CUMBERLAND ROAD AUBURN  NORTHBOUND,,Y,9
11530.0,-33.406531699999995,149.599612,Mobile Digital Speed Camera,GILMOUR ST KELSO NORTHBOUND,,Y,128
11531.0,-33.406531699999995,149.599612,Mobile Digital Speed Camera,GILMOUR ST KELSO SOUTHBOUND,,Y,39
11541.0,-33.846332000000004,151.03022990000002,Mobile Digital Speed Camera,RAWSON STREET AUBURN SOUTHBOUND,,Y,1
11542.0,-33.846332000000004,151.03022990000002,Mobile Digital Speed Camera,RAWSON STREET AUBURN NORTHBOUND,,Y,3
11545.0,-33.7578939,150.9418809,Mobile Digital Speed Camera,VARDYS ROAD LALOR PARK WESTBOUND,,Y,22
11546.0,-33.7535239,150.9291121,Mobile Digital Speed Camera,VARDYS ROAD KINGS LANGLEY EASTBOUND,,Y,6
11547.0,-33.7578939,150.9418809,Mobile Digital Speed Camera,VARDYS RAOD KINGS LANGLEY EASTBOUND,,Y,15
11555.0,-33.840649400000004,151.0050759,Mobile Digital Speed Camera,LOUIS STREET GRANVILLE EASTBOUND,,Y,10
11556.0,-33.840649400000004,151.0050759,Mobile Digital Speed Camera,LOUIS STREET GRANVILLE EASTBOUND,,Y,21
11558.0,-33.840649400000004,151.0050759,Mobile Digital Speed Camera,LOUIS STREET GRANVILLE WESTBOUND,,Y,21
11570.0,-31.4302152,149.0702718,Mobile Digital Speed Camera,NEWELL HIGHWAY GOWANG WESTBOUND,,Y,1
11572.0,-33.4338526,149.92029730000002,Mobile Digital Speed Camera,GREAT WESTERN HIGHWAY MEADOW FLAT WESTBOUND,,Y,20
11573.0,-33.437458,149.8515642,Mobile Digital Speed Camera,GREAT WESTERN HIGHWAY KIRKCONNELL WESTBOUND,,Y,42
11580.0,-29.309982899999998,149.97242849999998,Mobile Digital Speed Camera,NEWELL HWY MOREE NORTHBOUND,,Y,1
11581.0,-29.309982899999998,149.97242849999998,Mobile Digital Speed Camera,NEWELL HWY MOREE NORTHBOUND,,Y,1
11582.0,-29.309982899999998,149.97242849999998,Mobile Digital Speed Camera,NEWELL HWY MOREE NORTHBOUND,,Y,1
11583.0,-29.309982899999998,149.97242849999998,Mobile Digital Speed Camera,NEWELL HIGHWAY MOREE NORTHBOUND,,Y,5
11591.0,-29.467756599999998,149.7875621,Mobile Digital Speed Camera,GWYDIR HIGHWAY MOREE SOUTHBOUND,,Y,29
11592.0,-29.467756599999998,149.7875621,Mobile Digital Speed Camera,GWYDIR HIGHWAY MOREE NORTHBOUND,,Y,5
11593.0,-29.309982899999998,149.97242849999998,Mobile Digital Speed Camera,NEWELL HIGHWAY MOREE SOUTHBOUND,,Y,31
11594.0,-29.309982899999998,149.97242849999998,Mobile Digital Speed Camera,NEWELL HIGHWAY MOREE NORTHBOUND,,Y,45
11600.0,-30.7,150.033333,Mobile Digital Speed Camera,KAMILAROI HIGHWAY BOGGARBRI NORTHBOUND,,Y,3
11602.0,-30.7,150.033333,Mobile Digital Speed Camera,KAMILAROI HIGHWAY BOGGABRI NORTHBOUND,,Y,3
11603.0,-30.580476399999995,149.9439764,Mobile Digital Speed Camera,KAMILAROI HIGHWAY BAAN BAA WESTBOUND,,Y,10
11604.0,-30.580476399999995,149.9439764,Mobile Digital Speed Camera,KAMILAROI HIGHWAY BAAN BAA WESTBOUND,,Y,1
11605.0,-30.580476399999995,149.9439764,Mobile Digital Speed Camera,KAMILAROI HIGHWAY BAAN BAA NORTHBOUND,,Y,4
11606.0,-30.580476399999995,149.9439764,Mobile Digital Speed Camera,KAMILAROI HIGHWAY BAAN BAA SOUTHBOUND,,Y,5
11617.0,-30.0774082,149.79323490000002,Mobile Digital Speed Camera,NEWELL HIGHWAY EDGEROI NORTHBOUND,,Y,1
11620.0,-33.4597397,149.4844013,Mobile Digital Speed Camera,MID WESTERN HIGHWAY EVANS PLAINS EASTBOUND,,Y,3
11621.0,-33.4597397,149.4844013,Mobile Digital Speed Camera,MID WESTERN HIGHWAY EVANS PLAINS WESTBOUND,,Y,16
11624.0,-29.9208212,149.79125249999998,Mobile Digital Speed Camera,NEWELL HIGHWAY BELLATA NORTHBOUND,,Y,1
11627.0,-29.309982899999998,149.97242849999998,Mobile Digital Speed Camera,NEWELL HIGHWAY MOREE NORTHBOUND,,Y,2
11632.0,-36.0647033,146.93165630000001,Mobile Digital Speed Camera,MATE STREET NORTH ALBURY NORTHBOUND,,Y,60
11633.0,-36.0647033,146.93165630000001,Mobile Digital Speed Camera,MATE STREET NORTH ALBURY SOUTHBOUND,,Y,53
11634.0,-36.0647033,146.93165630000001,Mobile Digital Speed Camera,MATE STREET NORTH ALBURY NORTHBOUND,,Y,43
11635.0,-36.0647033,146.93165630000001,Mobile Digital Speed Camera,MATE STREET NORTH ALBURY SOUTHBOUND,,Y,34
11637.0,-32.5216439,148.27984530000003,Mobile Digital Speed Camera,NEWELL HIGHWAY TOMINGLEY SOUTHBOUND,,Y,2
11650.0,-35.12002570000001,147.3895092,Mobile Digital Speed Camera,HAMMOND AVENUE EAST WAGGA WAGGA WESTBOUND,,Y,118
11651.0,-32.299312699999994,148.5457406,Mobile Digital Speed Camera,NEWELL HIGHWAY DUBBO NORTHBOUND,,Y,1
11653.0,-32.5216439,148.27984530000003,Mobile Digital Speed Camera,NEWELL HIGHWAY TOMINGLEY SOUTHBOUND,,Y,1
11654.0,-35.127523,147.4331652,Mobile Digital Speed Camera,STURT HIGHWAY GUMLY GUMLY EASTBOUND,,Y,12
11662.0,-28.239694300000004,153.55075449999998,Mobile Digital Speed Camera,CHINDERAH BAY DRIVE CHINDERAH SOUTHBOUND,,Y,8
11668.0,-28.1878846,153.539197,Mobile Digital Speed Camera,DRY DOCK ROAD TWEED HEADS SOUTH WESTBOUND,,Y,2
11682.0,-33.3824801,151.3700494,Mobile Digital Speed Camera,PACIFIC HIGHWAY LISAROW NORTHBOUND,,Y,53
11692.0,-33.471826,151.2884585,Mobile Digital Speed Camera,WOY WOY ROAD KARIONG SOUTHBOUND,,Y,8
11694.0,-36.18521679999999,148.90041599999998,Mobile Digital Speed Camera,SNOWY MOUNTAINS HIGHWAY RHINE FALLS NORTHBOUND,,Y,2
11698.0,-33.368349699999996,151.46881399999998,Mobile Digital Speed Camera,WYONG ROAD KILLARNEY VALE WESTBOUND,,Y,5
11700.0,-32.7002652,151.49211169999998,Mobile Digital Speed Camera,NEW ENGLAND HIGHWAY RUTHERFORD EASTBOUND,,Y,89
11711.0,-33.4379759,151.3239009,Mobile Digital Speed Camera,BRISBANE WATER DRIVE POINT CLARE NORTHBOUND,,Y,43
11712.0,-33.4379759,151.3239009,Mobile Digital Speed Camera,BRISBANE WATER DRIVE POINT CLARE NORTHBOUND,,Y,73
11713.0,-33.4379759,151.3239009,Mobile Digital Speed Camera,BRISBANE WATER DRIVE POINT CLARE NORTHBOUND,,Y,30
11714.0,-33.4379759,151.3239009,Mobile Digital Speed Camera,BRISBANE WATER DRIVE POINT CLARE EASTBOUND,,Y,33
11720.0,-33.418,151.44299999999998,Mobile Digital Speed Camera,CENTRAL COAST HIGHWAY WAMBERAL NORTHBOUND,,Y,15
11721.0,-33.4068205,151.46454430000003,Mobile Digital Speed Camera,CENTRAL COAST HIGHWAY FORRESTERS BEACH NORTHBOUND,,Y,7
11722.0,-33.412732,151.452494,Mobile Digital Speed Camera,THE ENTRANCE ROAD WAMBERAL SOUTHBOUND,,Y,9
11723.0,-33.412732,151.452494,Mobile Digital Speed Camera,THE ENTRANCE ROAD WAMBERAL SOUTHBOUND,,Y,2
11730.0,-32.763883,151.59658000000002,Mobile Digital Speed Camera,NEW ENGLAND HIGHWAY EAST MAITLAND SOUTHBOUND,,Y,7
11731.0,-32.763883,151.59658000000002,Mobile Digital Speed Camera,NEW ENGLAND HIGHWAY EAST MAITLAND SOUTHBOUND,,Y,59
11732.0,-32.763883,151.59658000000002,Mobile Digital Speed Camera,NEW ENGLAND HIGHWAY EAST MAITLAND NORTHBOUND,,Y,72
11750.0,-32.934692999999996,151.6889296,Mobile Digital Speed Camera,LOOKOUT ROAD NEW LAMBTON HEIGHTS SOUTHBOUND,,Y,9
11760.0,-32.9368496,151.7417344,Mobile Digital Speed Camera,GLEBE ROAD MEREWETHER EASTBOUND,,Y,6
11761.0,-32.9387272,151.758769,Mobile Digital Speed Camera,GLEBE ROAD THE JUNCTION EASTBOUND,,Y,7
11762.0,-32.9387272,151.758769,Mobile Digital Speed Camera,GLEBE ROAD THE JUNCTION EASTBOUND,,Y,17
11763.0,-32.9385349,151.76011019999999,Mobile Digital Speed Camera,GLEBE ROAD THE JUNCTION WESTBOUND,,Y,2
11764.0,-32.9385349,151.76011019999999,Mobile Digital Speed Camera,GLEBE ROAD THE JUNCTION WESTBOUND,,Y,18
11765.0,-32.9380283,151.7490647,Mobile Digital Speed Camera,GLEBE ROAD MEREWETHER WESTBOUND,,Y,10
11781.0,-31.3689451,152.8011527,Mobile Digital Speed Camera,PACIFIC HIGHWAY TYAGARAH SOUTHBOUND,,Y,15
11801.0,-31.4277125,152.8802876,Mobile Digital Speed Camera,HASTINGS RIVER DRIVE PORT MACQUARIE EASTBOUND,,Y,18
11804.0,-31.418927000000004,152.866375,Mobile Digital Speed Camera,HASTINGS RIVER DRIVE FERNBANK CREEK WESTBOUND,,Y,15
11810.0,-31.073383000000003,152.8453455,Mobile Digital Speed Camera,SMITH STREET KEMPSEY NORTHBOUND,,Y,70
11811.0,-31.071707,152.845752,Mobile Digital Speed Camera,MACLEAY VALLEY WAY KEMPSEY NORTHBOUND,,Y,2
11823.0,-30.6790239,152.9455597,Mobile Digital Speed Camera,PACIFIC HIGHWAY NORTH MACKSVILLE  WESTBOUND,,Y,1
11824.0,-30.638006899999997,152.9731616,Mobile Digital Speed Camera,PACIFIC HIGHWAY NAMBUCCA HEADS SOUTHBOUND,,Y,111
11831.0,-31.118592,152.827452,Mobile Digital Speed Camera,MACLEAY VALLEY WAY SOUTH KEMPSEY NORTHBOUND,,Y,40
11841.0,-28.848383000000002,153.44276599999998,Mobile Digital Speed Camera,BRUXNER HIGHWAY ALSTONVILLE EASTBOUND,,Y,21
11842.0,-28.84842399999999,153.448261,Mobile Digital Speed Camera,BALLINA ROAD ALSTONVILLE NORTHBOUND,,Y,30
11870.0,-35.118866,147.363458,Mobile Digital Speed Camera,EDWARD STREET WAGGA WAGGA EASTBOUND,,Y,48
11890.0,-36.0366899,146.96331519999998,Mobile Digital Speed Camera,WAGGA ROAD LAVINGTON NORTHBOUND,,Y,68
11900.0,-35.1312097,147.3414875,Mobile Digital Speed Camera,FERNLEIGH ROAD GLENFIELD PARK WESTBOUND,,Y,66
11902.0,-35.1331372,147.35722009999998,Mobile Digital Speed Camera,FERNLEIGH ROAD MOUNT AUSTIN WESTBOUND,,Y,50
11910.0,-35.1414057,147.3757392,Mobile Digital Speed Camera,LAKE ALBERT ROAD KOORINGAL SOUTHBOUND,,Y,18
11911.0,-35.153476399999995,147.3742381,Mobile Digital Speed Camera,LAKE ALBERT ROAD LAKE ALBERT EASTBOUND,,Y,21
11912.0,-35.1414057,147.3757392,Mobile Digital Speed Camera,LAKE ALBERT ROAD LAKE ALBERT WESTBOUND,,Y,43
11913.0,-35.1414057,147.3757392,Mobile Digital Speed Camera,LAKE ALBERT ROAD LAKE ALBERT SOUTHBOUND,,Y,36
11914.0,-35.1414057,147.3757392,Mobile Digital Speed Camera,LAKE ALBERT ROAD KOORINGAL NORTHBOUND,,Y,31
11930.0,-35.971365399999996,147.004313,Mobile Digital Speed Camera,HUME HIGHWAY TABLE TOP WESTBOUND,,Y,37
11950.0,-35.1155881,147.3567697,Mobile Digital Speed Camera,DOCKER STREET WAGGA WAGGA NORTHBOUND,,Y,56
11951.0,-35.1155881,147.3567697,Mobile Digital Speed Camera,DOCKER STREET WAGGA WAGGA NORTHBOUND,,Y,102
11960.0,-35.09904540000001,147.3564862,Mobile Digital Speed Camera,TRAVERS STREET WAGGA WAGGA WESTBOUND,,Y,4
11961.0,-35.1004138,147.3578679,Mobile Digital Speed Camera,TRAVERS STREET WAGGA WAGGA EASTBOUND,,Y,2
11962.0,-35.1004138,147.3578679,Mobile Digital Speed Camera,TRAVERS STREET WAGGA WAGGA EASTBOUND,,Y,8
12001.0,-34.4003381,150.8805633,Mobile Digital Speed Camera,MOUNT OUSLEY ROAD MOUNT KEIRA NORTHBOUND,,Y,5
12010.0,-34.5765929,150.6910728,Mobile Digital Speed Camera,ILLAWARRA HIGHWAY TONGARRA EASTBOUND,,Y,31
12011.0,-34.5765929,150.6910728,Mobile Digital Speed Camera,ILLAWARRA HIGHWAY TONGARRA WESTBOUND,,Y,2
12020.0,-34.425746999999994,150.89982030000002,Mobile Digital Speed Camera,CORRIMAL STREET WOLLONGONG NORTHBOUND,,Y,2
12030.0,-35.080680900000004,150.5475785,Mobile Digital Speed Camera,PRINCES HIGHWAY BASIN VIEW SOUTHBOUND,,Y,23
12042.0,-34.4594929,150.86271530000002,Mobile Digital Speed Camera,FIVE ISLANDS ROAD UNANDERRA WESTBOUND,,Y,106
12050.0,-34.3975794,150.8923001,Mobile Digital Speed Camera,PRINCES HIGHWAY FAIRY MEADOW SOUTHBOUND,,Y,3
12061.0,-35.5597155,150.0106896,Mobile Digital Speed Camera,KINGS HIGHWAY BUCKENBOWRA NORTHBOUND,,Y,24
12160.0,-34.0289699,151.0817171,Mobile Digital Speed Camera,PRINCES HIGHWAY GYMEA WESTBOUND,,Y,60
12162.0,-34.0316548,151.0757004,Mobile Digital Speed Camera,PRINCES HIGHWAY KIRRAWEE NORTHBOUND,,Y,36
12181.0,-32.2308892,148.5757489,Mobile Digital Speed Camera,NARROMINE ROAD DUBBO WESTBOUND,,Y,4
12210.0,-32.2458233,148.6020809,Mobile Digital Speed Camera,MACQUARIE STREET DUBBO SOUTHBOUND,,Y,38
12211.0,-32.2433821,148.60174650000002,Mobile Digital Speed Camera,MACQUARIE STREET DUBBO NORTHBOUND,,Y,51
12280.0,-33.9249813,151.0556632,Mobile Digital Speed Camera,PUNCHBOWL ROAD PUNCHBOWL EASTBOUND,,Y,108
12281.0,-33.9192387,151.06323799999998,Mobile Digital Speed Camera,PUNCHBOWL ROAD WILEY PARK WESTBOUND,,Y,94
12310.0,-33.955513,150.89201200000002,Mobile Digital Speed Camera,HUME HIGHWAY CASULA SOUTHBOUND,,Y,104
12311.0,-33.9390731,150.9125405,Mobile Digital Speed Camera,HUME HIGHWAY CASULA NORTHBOUND,,Y,35
